,CodigoEstacion,NombreEstacion,Latitud,Longitud,Altitud,Categoria,Entidad,AreaOperativa,Departamento,Municipio,FechaInstalacion,FechaSuspension,IdParametro,Etiqueta,DescripcionSerie,Frecuencia,Fecha,Valor,Grado,Calificador,NivelAprobacion,SatValue,SatDesc
652,23215060,LA GLORIA [23215060],8.615277778,-73.800555556,35,Climática Ordinaria,INSTITUTO DE HIDROLOGIA METEOROLOGIA Y ESTUDIOS AMBIENTALES,Area Operativa 08 - Santanderes-Arauca,Cesar,La Gloria,1995-05-15,2018-06-19 10:35:00,PRECIPITACION,PTPM_TT_M,Precipitación total mensual,Mensual,1984-12-01,0.0,50,,900,10.606882,chirps-v2.0.1984.12.tif
904,23215050,MATA LA [23215050],8.614444444,-73.63638889,163,Pluviométrica,INSTITUTO DE HIDROLOGIA METEOROLOGIA Y ESTUDIOS AMBIENTALES,Area Operativa 08 - Santanderes-Arauca,Cesar,La Gloria,1983-09-15,,PRECIPITACION,PTPM_TT_M,Precipitación total mensual,Mensual,1984-12-01,0.3,50,,900,14.406282,chirps-v2.0.1984.12.tif
1455,25020670,RAYA LA [25020670],9.050277778,-73.55972222,500,Pluviométrica,INSTITUTO DE HIDROLOGIA METEOROLOGIA Y ESTUDIOS AMBIENTALES,Area Operativa 05 - Magdalena-Cesar-Guajira,Cesar,Pailitas,1972-09-15,,PRECIPITACION,PTPM_TT_M,Precipitación total mensual,Mensual,1984-12-01,5.0,50,,900,13.282513,chirps-v2.0.1984.12.tif
1862,25021640,SANTA ISABEL [25021640],8.71275,-73.70255556,40,Pluviométrica,INSTITUTO DE HIDROLOGIA METEOROLOGIA Y ESTUDIOS AMBIENTALES,Area Operativa 05 - Magdalena-Cesar-Guajira,Cesar,Pelaya,1984-11-15,,PRECIPITACION,PTPM_TT_M,Precipitación total mensual,Mensual,1984-12-01,0.0,50,,900,10.625891,chirps-v2.0.1984.12.tif
2519,25021590,TAMALAMEQUE D C [25021590],8.866666667,-73.81666667,33,Pluviométrica,INSTITUTO DE HIDROLOGIA METEOROLOGIA Y ESTUDIOS AMBIENTALES,Area Operativa 05 - Magdalena-Cesar-Guajira,Cesar,Tamalameque,1979-11-15,1998-06-15 00:00:00,PRECIPITACION,PTPM_TT_M,Precipitación total mensual,Mensual,1984-12-01,0.0,50,,900,4.9021597,chirps-v2.0.1984.12.tif
2965,25020090,TAMALAMEQUE [25020090],8.860388889,-73.81544444,20,Pluviométrica,INSTITUTO DE HIDROLOGIA METEOROLOGIA Y ESTUDIOS AMBIENTALES,Area Operativa 05 - Magdalena-Cesar-Guajira,Cesar,Tamalameque,1960-02-15,,PRECIPITACION,PTPM_TT_M,Precipitación total mensual,Mensual,1984-12-01,0.0,50,,900,4.9021597,chirps-v2.0.1984.12.tif
3549,25020650,TERROR EL HACIENDA [25020650],8.938777778,-73.56022222,250,Pluviométrica,INSTITUTO DE HIDROLOGIA METEOROLOGIA Y ESTUDIOS AMBIENTALES,Area Operativa 05 - Magdalena-Cesar-Guajira,Cesar,Chimichagua,1972-09-15,,PRECIPITACION,PTPM_TT_M,Precipitación total mensual,Mensual,1984-12-01,5.0,50,,900,9.820643,chirps-v2.0.1984.12.tif
4075,25020660,ZAPATOZA [25020660],9.00975,-73.75402778,90,Pluviométrica,INSTITUTO DE HIDROLOGIA METEOROLOGIA Y ESTUDIOS AMBIENTALES,Area Operativa 05 - Magdalena-Cesar-Guajira,Cesar,Curumaní,1972-09-15,,PRECIPITACION,PTPM_TT_M,Precipitación total mensual,Mensual,1984-12-01,4.0,50,,900,8.992523,chirps-v2.0.1984.12.tif
4782,28040150,BELLAVISTA [28040150],10.30805556,-74.03922222,140,Pluviométrica,INSTITUTO DE HIDROLOGIA METEOROLOGIA Y ESTUDIOS AMBIENTALES,Area Operativa 05 - Magdalena-Cesar-Guajira,Magdalena,Algarrobo,1963-02-15,,PRECIPITACION,PTPM_TT_M,Precipitación total mensual,Mensual,1984-12-01,14.0,50,,900,9.48328,chirps-v2.0.1984.12.tif
5261,28040360,CABANA LA HACIENDA [28040360],9.861,-74.07672222,100,Pluviométrica,INSTITUTO DE HIDROLOGIA METEOROLOGIA Y ESTUDIOS AMBIENTALES,Area Operativa 05 - Magdalena-Cesar-Guajira,Magdalena,Ariguaní (El Dificil),1979-01-15,,PRECIPITACION,PTPM_TT_M,Precipitación total mensual,Mensual,1984-12-01,0.0,50,,900,8.937895,chirps-v2.0.1984.12.tif
5921,29060150,DESTINO EL [29060150],10.57366667,-74.22411111,20,Pluviométrica,INSTITUTO DE HIDROLOGIA METEOROLOGIA Y ESTUDIOS AMBIENTALES,Area Operativa 05 - Magdalena-Cesar-Guajira,Magdalena,El Retén,1967-01-15,,PRECIPITACION,PTPM_TT_M,Precipitación total mensual,Mensual,1984-12-01,0.0,50,,900,6.0917115,chirps-v2.0.1984.12.tif
6350,29060560,DONA MARIA [29060560],10.38444444,-74.17794444,50,Pluviométrica,INSTITUTO DE HIDROLOGIA METEOROLOGIA Y ESTUDIOS AMBIENTALES,Area Operativa 05 - Magdalena-Cesar-Guajira,Magdalena,Fundación,1984-11-15,,PRECIPITACION,PTPM_TT_M,Precipitación total mensual,Mensual,1984-12-01,0.0,50,,900,4.853176,chirps-v2.0.1984.12.tif
7128,29060040,FUNDACION [29060040],10.52436111,-74.18222222,40,Pluviométrica,INSTITUTO DE HIDROLOGIA METEOROLOGIA Y ESTUDIOS AMBIENTALES,Area Operativa 05 - Magdalena-Cesar-Guajira,Magdalena,Fundación,1958-03-15,,PRECIPITACION,PTPM_TT_M,Precipitación total mensual,Mensual,1984-12-01,0.0,50,,900,3.464648,chirps-v2.0.1984.12.tif
7689,29060200,MARIA LA [29060200],10.54066667,-74.18697222,30,Pluviométrica,INSTITUTO DE HIDROLOGIA METEOROLOGIA Y ESTUDIOS AMBIENTALES,Area Operativa 05 - Magdalena-Cesar-Guajira,Magdalena,Aracataca,1974-11-15,,PRECIPITACION,PTPM_TT_M,Precipitación total mensual,Mensual,1984-12-01,0.0,50,,900,3.464648,chirps-v2.0.1984.12.tif
8368,28040100,MONTERRUBIO [28040100],10.23369444,-74.27325,100,Pluviométrica,INSTITUTO DE HIDROLOGIA METEOROLOGIA Y ESTUDIOS AMBIENTALES,Area Operativa 05 - Magdalena-Cesar-Guajira,Magdalena,Pivijai,1963-01-15,,PRECIPITACION,PTPM_TT_M,Precipitación total mensual,Mensual,1984-12-01,0.0,50,,900,6.811244,chirps-v2.0.1984.12.tif
8841,25021630,NUEVA GRANADA [25021630],9.80175,-74.38855556,110,Pluviométrica,INSTITUTO DE HIDROLOGIA METEOROLOGIA Y ESTUDIOS AMBIENTALES,Area Operativa 05 - Magdalena-Cesar-Guajira,Magdalena,Nueva Granada,1982-06-15,,PRECIPITACION,PTPM_TT_M,Precipitación total mensual,Mensual,1984-12-01,0.0,50,,900,6.6797857,chirps-v2.0.1984.12.tif
10060,29060100,SANTA ROSA DE LIMA [29060100],10.40275,-74.108,75,Pluviométrica,INSTITUTO DE HIDROLOGIA METEOROLOGIA Y ESTUDIOS AMBIENTALES,Area Operativa 05 - Magdalena-Cesar-Guajira,Magdalena,Fundación,1975-08-15,,PRECIPITACION,PTPM_TT_M,Precipitación total mensual,Mensual,1984-12-01,32.0,50,,900,12.917493,chirps-v2.0.1984.12.tif
10625,29060350,BAYANO [29060350],10.63116667,-74.29858333,30,Pluviométrica,INSTITUTO DE HIDROLOGIA METEOROLOGIA Y ESTUDIOS AMBIENTALES,Area Operativa 05 - Magdalena-Cesar-Guajira,Magdalena,El Retén,1975-01-15,,PRECIPITACION,PTPM_TT_M,Precipitación total mensual,Mensual,1984-12-01,0.0,50,,900,4.610627,chirps-v2.0.1984.12.tif
11138,29060030,BONGO EL [29060030],10.64877778,-74.3755,20,Pluviométrica,INSTITUTO DE HIDROLOGIA METEOROLOGIA Y ESTUDIOS AMBIENTALES,Area Operativa 05 - Magdalena-Cesar-Guajira,Magdalena,El Retén,1975-09-15,,PRECIPITACION,PTPM_TT_M,Precipitación total mensual,Mensual,1984-12-01,0.0,50,,900,7.28654,chirps-v2.0.1984.12.tif
11798,29060140,CARMEN EL [29060140],10.6755,-74.20644444,25,Pluviométrica,INSTITUTO DE HIDROLOGIA METEOROLOGIA Y ESTUDIOS AMBIENTALES,Area Operativa 05 - Magdalena-Cesar-Guajira,Magdalena,Zona Bananera,1967-03-15,,PRECIPITACION,PTPM_TT_M,Precipitación total mensual,Mensual,1984-12-01,0.0,50,,900,5.7330294,chirps-v2.0.1984.12.tif
12541,29060060,CENIZO EL [29060060],10.65161111,-74.07322222,450,Pluviométrica,INSTITUTO DE HIDROLOGIA METEOROLOGIA Y ESTUDIOS AMBIENTALES,Area Operativa 05 - Magdalena-Cesar-Guajira,Magdalena,Aracataca,1959-03-15,,PRECIPITACION,PTPM_TT_M,Precipitación total mensual,Mensual,1984-12-01,8.0,50,,900,7.6857595,chirps-v2.0.1984.12.tif
13114,29060190,FLORIDA LA [29060190],10.61063889,-74.25538889,26,Pluviométrica,INSTITUTO DE HIDROLOGIA METEOROLOGIA Y ESTUDIOS AMBIENTALES,Area Operativa 05 - Magdalena-Cesar-Guajira,Magdalena,El Retén,1973-04-15,2019-02-07 11:43:00,PRECIPITACION,PTPM_TT_M,Precipitación total mensual,Mensual,1984-12-01,0.0,50,,900,4.610627,chirps-v2.0.1984.12.tif
13691,29060170,GAVILAN [29060170],10.68044444,-74.33069444,20,Pluviométrica,INSTITUTO DE HIDROLOGIA METEOROLOGIA Y ESTUDIOS AMBIENTALES,Area Operativa 05 - Magdalena-Cesar-Guajira,Magdalena,El Retén,1967-03-15,,PRECIPITACION,PTPM_TT_M,Precipitación total mensual,Mensual,1984-12-01,0.0,50,,900,4.6261425,chirps-v2.0.1984.12.tif
14345,29065020,PADELMA [29065020],10.72111111,-74.19972222,20,Climática Ordinaria,INSTITUTO DE HIDROLOGIA METEOROLOGIA Y ESTUDIOS AMBIENTALES,Area Operativa 05 - Magdalena-Cesar-Guajira,Magdalena,Zona Bananera,1967-08-15,,PRECIPITACION,PTPM_TT_M,Precipitación total mensual,Mensual,1984-12-01,0.0,50,,900,5.891328,chirps-v2.0.1984.12.tif
14992,29060270,PALO ALTO [29060270],10.7225,-74.27191667,25,Pluviométrica,INSTITUTO DE HIDROLOGIA METEOROLOGIA Y ESTUDIOS AMBIENTALES,Area Operativa 05 - Magdalena-Cesar-Guajira,Magdalena,Puebloviejo,1967-01-15,,PRECIPITACION,PTPM_TT_M,Precipitación total mensual,Mensual,1984-12-01,0.0,50,,900,4.846672,chirps-v2.0.1984.12.tif
15650,29060240,UNION LA [29060240],10.70655556,-74.22355556,20,Pluviométrica,INSTITUTO DE HIDROLOGIA METEOROLOGIA Y ESTUDIOS AMBIENTALES,Area Operativa 05 - Magdalena-Cesar-Guajira,Magdalena,Zona Bananera,1967-01-15,2019-02-07 11:43:00,PRECIPITACION,PTPM_TT_M,Precipitación total mensual,Mensual,1984-12-01,0.0,50,,900,5.8489313,chirps-v2.0.1984.12.tif
16277,29065010,ZACAPA [29065010],10.58333333,-74.25,30,Climática Ordinaria,INSTITUTO DE HIDROLOGIA METEOROLOGIA Y ESTUDIOS AMBIENTALES,Area Operativa 05 - Magdalena-Cesar-Guajira,Magdalena,El Retén,1967-07-15,1990-04-15 00:00:00,PRECIPITACION,PTPM_TT_M,Precipitación total mensual,Mensual,1984-12-01,0.0,50,,900,5.303337,chirps-v2.0.1984.12.tif
16455,29060180,ESPERANZA LA [29060180],10.74252778,-74.30627778,25,Pluviométrica,INSTITUTO DE HIDROLOGIA METEOROLOGIA Y ESTUDIOS AMBIENTALES,Area Operativa 05 - Magdalena-Cesar-Guajira,Magdalena,Puebloviejo,1975-10-15,,PRECIPITACION,PTPM_TT_M,Precipitación total mensual,Mensual,1984-12-01,0.0,50,,900,4.7787657,chirps-v2.0.1984.12.tif
16996,29060340,PALMOR EL [29060340],10.77344444,-74.02563889,1200,Pluviométrica,INSTITUTO DE HIDROLOGIA METEOROLOGIA Y ESTUDIOS AMBIENTALES,Area Operativa 05 - Magdalena-Cesar-Guajira,Magdalena,Ciénaga,1975-09-15,,PRECIPITACION,PTPM_TT_M,Precipitación total mensual,Mensual,1984-12-01,8.0,50,,900,14.021057,chirps-v2.0.1984.12.tif
17832,29060220,POLY LA [29060220],10.81666667,-74.18333333,24,Pluviométrica,INSTITUTO DE HIDROLOGIA METEOROLOGIA Y ESTUDIOS AMBIENTALES,Area Operativa 05 - Magdalena-Cesar-Guajira,Magdalena,Zona Bananera,1972-01-15,2002-02-15 00:00:00,PRECIPITACION,PTPM_TT_M,Precipitación total mensual,Mensual,1984-12-01,0.0,50,,900,8.496701,chirps-v2.0.1984.12.tif
18211,29065030,PRADO SEVILLA [29065030],10.76416667,-74.15472222,18,Climática Ordinaria,INSTITUTO DE HIDROLOGIA METEOROLOGIA Y ESTUDIOS AMBIENTALES,Area Operativa 05 - Magdalena-Cesar-Guajira,Magdalena,Zona Bananera,1970-07-15,2019-02-07 11:32:00,PRECIPITACION,PTPM_TT_M,Precipitación total mensual,Mensual,1984-12-01,0.0,50,,900,8.067206,chirps-v2.0.1984.12.tif
18779,29060250,PROYECTOS LOS [29060250],10.73672222,-74.23708333,20,Pluviométrica,INSTITUTO DE HIDROLOGIA METEOROLOGIA Y ESTUDIOS AMBIENTALES,Area Operativa 05 - Magdalena-Cesar-Guajira,Magdalena,Zona Bananera,1967-01-15,,PRECIPITACION,PTPM_TT_M,Precipitación total mensual,Mensual,1984-12-01,0.0,50,,900,5.8489313,chirps-v2.0.1984.12.tif
19228,29060550,RUBY EL [29060550],10.84513889,-74.18822222,20,Pluviométrica,INSTITUTO DE HIDROLOGIA METEOROLOGIA Y ESTUDIOS AMBIENTALES,Area Operativa 05 - Magdalena-Cesar-Guajira,Magdalena,Zona Bananera,1984-03-15,2019-02-07 11:33:00,PRECIPITACION,PTPM_TT_M,Precipitación total mensual,Mensual,1984-12-01,0.0,50,,900,8.496701,chirps-v2.0.1984.12.tif
20164,29060070,SAN PABLO [29060070],10.80819444,-74.02680556,800,Pluviométrica,INSTITUTO DE HIDROLOGIA METEOROLOGIA Y ESTUDIOS AMBIENTALES,Area Operativa 05 - Magdalena-Cesar-Guajira,Magdalena,Ciénaga,1960-08-15,,PRECIPITACION,PTPM_TT_M,Precipitación total mensual,Mensual,1984-12-01,0.0,50,,900,18.2825,chirps-v2.0.1984.12.tif
20764,29060230,SARA LA [29060230],10.83622222,-74.16102778,25,Pluviométrica,INSTITUTO DE HIDROLOGIA METEOROLOGIA Y ESTUDIOS AMBIENTALES,Area Operativa 05 - Magdalena-Cesar-Guajira,Magdalena,Zona Bananera,1971-08-15,2019-02-07 11:33:00,PRECIPITACION,PTPM_TT_M,Precipitación total mensual,Mensual,1984-12-01,0.0,50,,900,8.496701,chirps-v2.0.1984.12.tif
21197,29060160,ENANO EL [29060160],10.90219444,-74.18947222,25,Pluviométrica,INSTITUTO DE HIDROLOGIA METEOROLOGIA Y ESTUDIOS AMBIENTALES,Area Operativa 05 - Magdalena-Cesar-Guajira,Magdalena,Zona Bananera,1974-11-15,,PRECIPITACION,PTPM_TT_M,Precipitación total mensual,Mensual,1984-12-01,13.0,50,,900,7.380783,chirps-v2.0.1984.12.tif
21842,29060210,PALMA LA [29060210],10.96683333,-74.20469444,23,Pluviométrica,INSTITUTO DE HIDROLOGIA METEOROLOGIA Y ESTUDIOS AMBIENTALES,Area Operativa 05 - Magdalena-Cesar-Guajira,Magdalena,Ciénaga,1967-03-15,,PRECIPITACION,PTPM_TT_M,Precipitación total mensual,Mensual,1984-12-01,70.0,50,,900,5.9638476,chirps-v2.0.1984.12.tif
22501,29060280,SAN ISIDRO [29060280],10.90083333,-74.22061111,25,Pluviométrica,INSTITUTO DE HIDROLOGIA METEOROLOGIA Y ESTUDIOS AMBIENTALES,Area Operativa 05 - Magdalena-Cesar-Guajira,Magdalena,Zona Bananera,1967-01-15,,PRECIPITACION,PTPM_TT_M,Precipitación total mensual,Mensual,1984-12-01,0.0,50,,900,7.280555,chirps-v2.0.1984.12.tif
23018,29060310,SEVILLANO [29060310],10.93305556,-74.25244444,5,Pluviométrica,INSTITUTO DE HIDROLOGIA METEOROLOGIA Y ESTUDIOS AMBIENTALES,Area Operativa 05 - Magdalena-Cesar-Guajira,Magdalena,Ciénaga,1979-09-15,,PRECIPITACION,PTPM_TT_M,Precipitación total mensual,Mensual,1984-12-01,0.0,50,,900,5.51271,chirps-v2.0.1984.12.tif
23696,29060120,TASAJERA [29060120],10.97622222,-74.36175,2,Pluviométrica,INSTITUTO DE HIDROLOGIA METEOROLOGIA Y ESTUDIOS AMBIENTALES,Area Operativa 05 - Magdalena-Cesar-Guajira,Magdalena,Puebloviejo,1965-08-15,,PRECIPITACION,PTPM_TT_M,Precipitación total mensual,Mensual,1984-12-01,0.0,50,,900,4.9757557,chirps-v2.0.1984.12.tif
24346,15015020,YE LA [15015020],10.99241667,-74.21113889,20,Climática Ordinaria,INSTITUTO DE HIDROLOGIA METEOROLOGIA Y ESTUDIOS AMBIENTALES,Area Operativa 05 - Magdalena-Cesar-Guajira,Magdalena,Ciénaga,1967-07-15,2019-02-07 11:34:00,PRECIPITACION,PTPM_TT_M,Precipitación total mensual,Mensual,1984-12-01,0.0,50,,900,5.9638476,chirps-v2.0.1984.12.tif
24765,16060010,CNO LA RAYA [16060010],8.834722222,-72.79166667,75,Pluviométrica,INSTITUTO DE HIDROLOGIA METEOROLOGIA Y ESTUDIOS AMBIENTALES,Area Operativa 08 - Santanderes-Arauca,Norte De Santander,Tibú,1973-04-15,,PRECIPITACION,PTPM_TT_M,Precipitación total mensual,Mensual,1984-12-01,141.0,4,,900,112.180756,chirps-v2.0.1984.12.tif
25326,16070030,HACHARIRA [16070030],8.875833333,-72.98222222,75,Pluviométrica,INSTITUTO DE HIDROLOGIA METEOROLOGIA Y ESTUDIOS AMBIENTALES,Area Operativa 08 - Santanderes-Arauca,Norte De Santander,El Tarra,1973-04-15,2018-07-13 12:10:00,PRECIPITACION,PTPM_TT_M,Precipitación total mensual,Mensual,1984-12-01,169.0,50,,900,103.99977,chirps-v2.0.1984.12.tif
25730,16070040,ORU [16070040],8.641111111,-72.90944444,150,Pluviométrica,INSTITUTO DE HIDROLOGIA METEOROLOGIA Y ESTUDIOS AMBIENTALES,Area Operativa 08 - Santanderes-Arauca,Norte De Santander,Tibú,1973-04-15,,PRECIPITACION,PTPM_TT_M,Precipitación total mensual,Mensual,1984-12-01,216.0,50,,900,117.252144,chirps-v2.0.1984.12.tif
26161,16050240,PALACIO EL [16050240],8.610333333,-73.35113889,1280,Pluviométrica,INSTITUTO DE HIDROLOGIA METEOROLOGIA Y ESTUDIOS AMBIENTALES,Area Operativa 08 - Santanderes-Arauca,Norte De Santander,Convención,1984-03-15,2014-08-28 00:00:00,PRECIPITACION,PTPM_TT_M,Precipitación total mensual,Mensual,1984-12-01,83.0,50,,900,30.323936,chirps-v2.0.1984.12.tif
26773,16070010,PUERTO BARCO [16070010],8.998055556,-72.89694444,50,Pluviométrica,INSTITUTO DE HIDROLOGIA METEOROLOGIA Y ESTUDIOS AMBIENTALES,Area Operativa 08 - Santanderes-Arauca,Norte De Santander,Tibú,1973-04-15,,PRECIPITACION,PTPM_TT_M,Precipitación total mensual,Mensual,1984-12-01,881.0,50,,900,88.54831,chirps-v2.0.1984.12.tif
390646,25020220,ASTREA [25020220],9.492944444,-73.97288889,50,Pluviométrica,INSTITUTO DE HIDROLOGIA METEOROLOGIA Y ESTUDIOS AMBIENTALES,Area Operativa 05 - Magdalena-Cesar-Guajira,Cesar,Astrea,1962-04-15,,PRECIPITACION,PTPM_TT_M,Precipitación total mensual,Mensual,1984-12-01,0.0,50,,900,3.336677,chirps-v2.0.1984.12.tif
391352,25020240,CANAL EL [25020240],9.410472222,-73.89041667,70,Pluviométrica,INSTITUTO DE HIDROLOGIA METEOROLOGIA Y ESTUDIOS AMBIENTALES,Area Operativa 05 - Magdalena-Cesar-Guajira,Cesar,Chimichagua,1963-03-15,,PRECIPITACION,PTPM_TT_M,Precipitación total mensual,Mensual,1984-12-01,18.0,50,,900,7.1565824,chirps-v2.0.1984.12.tif
391944,25021240,CHIMICHAGUA [25021240],9.260083333,-73.80986111,138,Pluviométrica,INSTITUTO DE HIDROLOGIA METEOROLOGIA Y ESTUDIOS AMBIENTALES,Area Operativa 05 - Magdalena-Cesar-Guajira,Cesar,Chimichagua,1972-07-15,,PRECIPITACION,PTPM_TT_M,Precipitación total mensual,Mensual,1984-12-01,0.0,50,,900,3.1207762,chirps-v2.0.1984.12.tif
392527,25025250,CHIRIGUANA [25025250],9.361027778,-73.59338889,40,Climática Ordinaria,INSTITUTO DE HIDROLOGIA METEOROLOGIA Y ESTUDIOS AMBIENTALES,Area Operativa 05 - Magdalena-Cesar-Guajira,Cesar,Chiriguaná,1973-06-15,,PRECIPITACION,PTPM_TT_M,Precipitación total mensual,Mensual,1984-12-01,0.0,50,,900,7.3578568,chirps-v2.0.1984.12.tif
392969,25021580,CURUMANI D C [25021580],9.183333333,-73.53333333,100,Pluviométrica,INSTITUTO DE HIDROLOGIA METEOROLOGIA Y ESTUDIOS AMBIENTALES,Area Operativa 05 - Magdalena-Cesar-Guajira,Cesar,Curumaní,1979-11-15,1996-08-15 00:00:00,PRECIPITACION,PTPM_TT_M,Precipitación total mensual,Mensual,1984-12-01,0.0,50,,900,8.00982,chirps-v2.0.1984.12.tif
393373,25020250,CURUMANI [25020250],9.197194444,-73.54194444,100,Pluviométrica,INSTITUTO DE HIDROLOGIA METEOROLOGIA Y ESTUDIOS AMBIENTALES,Area Operativa 05 - Magdalena-Cesar-Guajira,Cesar,Curumaní,1963-03-15,,PRECIPITACION,PTPM_TT_M,Precipitación total mensual,Mensual,1984-12-01,0.0,50,,900,8.00982,chirps-v2.0.1984.12.tif
393953,25020690,POPONTE [25020690],9.423277778,-73.41094444,500,Pluviométrica,INSTITUTO DE HIDROLOGIA METEOROLOGIA Y ESTUDIOS AMBIENTALES,Area Operativa 05 - Magdalena-Cesar-Guajira,Cesar,Curumaní,1972-09-15,,PRECIPITACION,PTPM_TT_M,Precipitación total mensual,Mensual,1984-12-01,0.0,50,,900,7.7683845,chirps-v2.0.1984.12.tif
394546,25020920,PRIMAVERA LA [25020920],9.216666667,-73.41666667,500,Pluviométrica,INSTITUTO DE HIDROLOGIA METEOROLOGIA Y ESTUDIOS AMBIENTALES,Area Operativa 05 - Magdalena-Cesar-Guajira,Cesar,Curumaní,1972-09-15,2019-02-07 11:35:00,PRECIPITACION,PTPM_TT_M,Precipitación total mensual,Mensual,1984-12-01,0.0,50,,900,7.1223536,chirps-v2.0.1984.12.tif
395168,25020260,RINCONHONDO [25020260],9.397027778,-73.48802778,100,Pluviométrica,INSTITUTO DE HIDROLOGIA METEOROLOGIA Y ESTUDIOS AMBIENTALES,Area Operativa 05 - Magdalena-Cesar-Guajira,Cesar,Chiriguaná,1963-03-15,,PRECIPITACION,PTPM_TT_M,Precipitación total mensual,Mensual,1984-12-01,0.0,50,,900,7.72025,chirps-v2.0.1984.12.tif
395877,25020270,SALOA [25020270],9.193166667,-73.73130556,90,Pluviométrica,INSTITUTO DE HIDROLOGIA METEOROLOGIA Y ESTUDIOS AMBIENTALES,Area Operativa 05 - Magdalena-Cesar-Guajira,Cesar,Chimichagua,1963-04-15,,PRECIPITACION,PTPM_TT_M,Precipitación total mensual,Mensual,1984-12-01,0.0,50,,900,6.2259507,chirps-v2.0.1984.12.tif
478497,28025090,CENTENARIO HACIENDA [28025090],9.85025,-73.26547222,100,Climática Ordinaria,INSTITUTO DE HIDROLOGIA METEOROLOGIA Y ESTUDIOS AMBIENTALES,Area Operativa 05 - Magdalena-Cesar-Guajira,Cesar,Agustín Codazzi,1976-12-15,,PRECIPITACION,PTPM_TT_M,Precipitación total mensual,Mensual,1984-12-01,0.0,50,,900,8.434488,chirps-v2.0.1984.12.tif
479200,25020230,JAGUA LA [25020230],9.562166667,-73.33947222,170,Pluviométrica,INSTITUTO DE HIDROLOGIA METEOROLOGIA Y ESTUDIOS AMBIENTALES,Area Operativa 05 - Magdalena-Cesar-Guajira,Cesar,La Jagua De Ibirico,1963-08-15,,PRECIPITACION,PTPM_TT_M,Precipitación total mensual,Mensual,1984-12-01,0.0,50,,900,7.250336,chirps-v2.0.1984.12.tif
479898,28020230,LLANOS LOS [28020230],9.733333333,-73.3,100,Pluviométrica,INSTITUTO DE HIDROLOGIA METEOROLOGIA Y ESTUDIOS AMBIENTALES,Area Operativa 05 - Magdalena-Cesar-Guajira,Cesar,Becerrill,1962-09-15,2010-10-15 00:00:00,PRECIPITACION,PTPM_TT_M,Precipitación total mensual,Mensual,1984-12-01,0.0,50,,900,8.134131,chirps-v2.0.1984.12.tif
480355,25020280,LOMA LA [25020280],9.606527778,-73.61197222,30,Pluviométrica,INSTITUTO DE HIDROLOGIA METEOROLOGIA Y ESTUDIOS AMBIENTALES,Area Operativa 05 - Magdalena-Cesar-Guajira,Cesar,El Paso,1963-10-15,,PRECIPITACION,PTPM_TT_M,Precipitación total mensual,Mensual,1984-12-01,0.0,50,,900,4.8032584,chirps-v2.0.1984.12.tif
480906,28040310,MOLINO EL [28040310],9.776055556,-73.74341667,110,Pluviométrica,INSTITUTO DE HIDROLOGIA METEOROLOGIA Y ESTUDIOS AMBIENTALES,Area Operativa 05 - Magdalena-Cesar-Guajira,Cesar,El Paso,1972-08-15,2016-06-01 00:00:00,PRECIPITACION,PTPM_TT_M,Precipitación total mensual,Mensual,1984-12-01,0.0,50,,900,4.6447906,chirps-v2.0.1984.12.tif
481349,28040350,PASO EL   [28040350],9.656972222,-73.74369444,30,Pluviométrica,INSTITUTO DE HIDROLOGIA METEOROLOGIA Y ESTUDIOS AMBIENTALES,Area Operativa 05 - Magdalena-Cesar-Guajira,Cesar,El Paso,1972-08-15,,PRECIPITACION,PTPM_TT_M,Precipitación total mensual,Mensual,1984-12-01,0.0,50,,900,4.956358,chirps-v2.0.1984.12.tif
481981,28020080,PLAYAS LAS HACIENDA [28020080],9.848083333,-73.46219444,60,Pluviométrica,INSTITUTO DE HIDROLOGIA METEOROLOGIA Y ESTUDIOS AMBIENTALES,Area Operativa 05 - Magdalena-Cesar-Guajira,Cesar,Agustín Codazzi,1959-08-15,,PRECIPITACION,PTPM_TT_M,Precipitación total mensual,Mensual,1984-12-01,0.0,50,,900,8.689077,chirps-v2.0.1984.12.tif
482531,28020420,SAN GABRIEL [28020420],9.844611111,-73.54769444,70,Pluviométrica,INSTITUTO DE HIDROLOGIA METEOROLOGIA Y ESTUDIOS AMBIENTALES,Area Operativa 05 - Magdalena-Cesar-Guajira,Cesar,San Diego,1972-09-15,,PRECIPITACION,PTPM_TT_M,Precipitación total mensual,Mensual,1984-12-01,24.0,50,,900,3.0850434,chirps-v2.0.1984.12.tif
483023,28025080,SOCOMBA [28025080],9.686666667,-73.24055556,170,Climática Principal,INSTITUTO DE HIDROLOGIA METEOROLOGIA Y ESTUDIOS AMBIENTALES,Area Operativa 05 - Magdalena-Cesar-Guajira,Cesar,Becerrill,1976-12-15,2019-02-07 11:41:00,PRECIPITACION,PTPM_TT_M,Precipitación total mensual,Mensual,1984-12-01,0.0,50,,900,12.022427,chirps-v2.0.1984.12.tif
483311,25021650,YUCAL EL [25021650],9.557388889,-73.87619444,40,Pluviométrica,INSTITUTO DE HIDROLOGIA METEOROLOGIA Y ESTUDIOS AMBIENTALES,Area Operativa 05 - Magdalena-Cesar-Guajira,Cesar,Astrea,1984-11-15,,PRECIPITACION,PTPM_TT_M,Precipitación total mensual,Mensual,1984-12-01,0.0,50,,900,4.2552905,chirps-v2.0.1984.12.tif
483813,28040030,BOSCONIA [28040030],9.97575,-73.88175,130,Pluviométrica,INSTITUTO DE HIDROLOGIA METEOROLOGIA Y ESTUDIOS AMBIENTALES,Area Operativa 05 - Magdalena-Cesar-Guajira,Cesar,Bosconia,1979-11-15,,PRECIPITACION,PTPM_TT_M,Precipitación total mensual,Mensual,1984-12-01,0.0,50,,900,5.750935,chirps-v2.0.1984.12.tif
484313,28020460,CODAZZI DC [28020460],10.04463889,-73.24338889,90,Pluviométrica,INSTITUTO DE HIDROLOGIA METEOROLOGIA Y ESTUDIOS AMBIENTALES,Area Operativa 05 - Magdalena-Cesar-Guajira,Cesar,Agustín Codazzi,1979-11-15,,PRECIPITACION,PTPM_TT_M,Precipitación total mensual,Mensual,1984-12-01,0.0,50,,900,9.915509,chirps-v2.0.1984.12.tif
485407,28035040,GUAYMARAL [28035040],9.904916667,-73.64752778,50,Climática Ordinaria,INSTITUTO DE HIDROLOGIA METEOROLOGIA Y ESTUDIOS AMBIENTALES,Area Operativa 05 - Magdalena-Cesar-Guajira,Cesar,Valledupar,1972-08-15,,PRECIPITACION,PTPM_TT_M,Precipitación total mensual,Mensual,1984-12-01,0.0,50,,900,3.5824037,chirps-v2.0.1984.12.tif
486036,28040270,MANATURE HACIENDA [28040270],10.03511111,-73.78852778,150,Pluviométrica,INSTITUTO DE HIDROLOGIA METEOROLOGIA Y ESTUDIOS AMBIENTALES,Area Operativa 05 - Magdalena-Cesar-Guajira,Cesar,Bosconia,1968-09-15,,PRECIPITACION,PTPM_TT_M,Precipitación total mensual,Mensual,1984-12-01,39.0,50,,900,7.339828,chirps-v2.0.1984.12.tif
486602,28025070,MOTILONIA CODAZZI [28025070],10.00180556,-73.24938889,180,Agrometeorológica,INSTITUTO DE HIDROLOGIA METEOROLOGIA Y ESTUDIOS AMBIENTALES,Area Operativa 05 - Magdalena-Cesar-Guajira,Cesar,Agustín Codazzi,1956-01-15,,PRECIPITACION,PTPM_TT_M,Precipitación total mensual,Mensual,1984-12-01,0.0,50,,900,9.915509,chirps-v2.0.1984.12.tif
487310,28040070,PALMARIGUANI [28040070],9.930083333,-73.95488889,80,Pluviométrica,INSTITUTO DE HIDROLOGIA METEOROLOGIA Y ESTUDIOS AMBIENTALES,Area Operativa 05 - Magdalena-Cesar-Guajira,Cesar,Bosconia,1963-01-15,,PRECIPITACION,PTPM_TT_M,Precipitación total mensual,Mensual,1984-12-01,0.0,50,,900,7.712241,chirps-v2.0.1984.12.tif
487752,28040400,PALMASOLA [28040400],9.977416667,-73.88930556,50,Pluviométrica,INSTITUTO DE HIDROLOGIA METEOROLOGIA Y ESTUDIOS AMBIENTALES,Area Operativa 05 - Magdalena-Cesar-Guajira,Cesar,Bosconia,1984-06-15,2019-02-07 11:42:00,PRECIPITACION,PTPM_TT_M,Precipitación total mensual,Mensual,1984-12-01,0.0,50,,900,5.750935,chirps-v2.0.1984.12.tif
488260,28020600,RETORNO EL [28020600],9.854722222,-73.35716667,150,Pluviométrica,INSTITUTO DE HIDROLOGIA METEOROLOGIA Y ESTUDIOS AMBIENTALES,Area Operativa 05 - Magdalena-Cesar-Guajira,Cesar,Agustín Codazzi,1979-02-15,,PRECIPITACION,PTPM_TT_M,Precipitación total mensual,Mensual,1984-12-01,0.0,50,,900,8.294182,chirps-v2.0.1984.12.tif
488989,28020440,SANTA TERESA HACIENDA [28020440],9.917027778,-73.28613889,80,Pluviométrica,INSTITUTO DE HIDROLOGIA METEOROLOGIA Y ESTUDIOS AMBIENTALES,Area Operativa 05 - Magdalena-Cesar-Guajira,Cesar,Agustín Codazzi,1959-04-15,,PRECIPITACION,PTPM_TT_M,Precipitación total mensual,Mensual,1984-12-01,0.0,50,,900,5.990172,chirps-v2.0.1984.12.tif
489616,28020310,BOGOTANA LA [28020310],10.1,-73.15,200,Pluviométrica,INSTITUTO DE HIDROLOGIA METEOROLOGIA Y ESTUDIOS AMBIENTALES,Area Operativa 05 - Magdalena-Cesar-Guajira,Cesar,Agustín Codazzi,1968-09-15,2004-08-15 00:00:00,PRECIPITACION,PTPM_TT_M,Precipitación total mensual,Mensual,1984-12-01,145.0,50,,900,8.224083,chirps-v2.0.1984.12.tif
490005,28030190,CARACOLI [28030190],10.08869444,-73.73172222,220,Pluviométrica,INSTITUTO DE HIDROLOGIA METEOROLOGIA Y ESTUDIOS AMBIENTALES,Area Operativa 05 - Magdalena-Cesar-Guajira,Cesar,Valledupar,1972-07-15,,PRECIPITACION,PTPM_TT_M,Precipitación total mensual,Mensual,1984-12-01,0.0,50,,900,8.500132,chirps-v2.0.1984.12.tif
490719,28040200,CHIMILAIMA [28040200],10.06666667,-73.76666667,120,Pluviométrica,INSTITUTO DE HIDROLOGIA METEOROLOGIA Y ESTUDIOS AMBIENTALES,Area Operativa 05 - Magdalena-Cesar-Guajira,Cesar,Bosconia,1962-08-15,1996-12-15 00:00:00,PRECIPITACION,PTPM_TT_M,Precipitación total mensual,Mensual,1984-12-01,0.0,50,,900,9.395357,chirps-v2.0.1984.12.tif
490906,28020590,LETICIA [28020590],10.15238889,-73.22172222,140,Pluviométrica,INSTITUTO DE HIDROLOGIA METEOROLOGIA Y ESTUDIOS AMBIENTALES,Area Operativa 05 - Magdalena-Cesar-Guajira,Cesar,San Diego,1979-01-15,,PRECIPITACION,PTPM_TT_M,Precipitación total mensual,Mensual,1984-12-01,0.0,50,,900,8.635996,chirps-v2.0.1984.12.tif
491391,28010370,PARIS DE FRANCIA [28010370],10.30708333,-73.32544444,180,Pluviométrica,INSTITUTO DE HIDROLOGIA METEOROLOGIA Y ESTUDIOS AMBIENTALES,Area Operativa 05 - Magdalena-Cesar-Guajira,Cesar,Valledupar,1971-11-15,,PRECIPITACION,PTPM_TT_M,Precipitación total mensual,Mensual,1984-12-01,6.0,50,,900,9.425478,chirps-v2.0.1984.12.tif
492097,28040060,PAVAS LAS [28040060],10.06666667,-73.88333333,150,Pluviométrica,INSTITUTO DE HIDROLOGIA METEOROLOGIA Y ESTUDIOS AMBIENTALES,Area Operativa 05 - Magdalena-Cesar-Guajira,Cesar,Bosconia,1963-01-15,1992-07-15 00:00:00,PRECIPITACION,PTPM_TT_M,Precipitación total mensual,Mensual,1984-12-01,0.0,50,,900,15.5681305,chirps-v2.0.1984.12.tif
492428,28025020,RINCON EL [28025020],10.27138889,-73.13138889,350,Climática Ordinaria,INSTITUTO DE HIDROLOGIA METEOROLOGIA Y ESTUDIOS AMBIENTALES,Area Operativa 05 - Magdalena-Cesar-Guajira,Cesar,San Diego,1964-02-15,,PRECIPITACION,PTPM_TT_M,Precipitación total mensual,Mensual,1984-12-01,0.0,50,,900,11.696373,chirps-v2.0.1984.12.tif
494222,28035010,VILLA ROSA [28035010],10.19066667,-73.54738889,70,Climática Ordinaria,INSTITUTO DE HIDROLOGIA METEOROLOGIA Y ESTUDIOS AMBIENTALES,Area Operativa 05 - Magdalena-Cesar-Guajira,Cesar,Valledupar,1968-03-15,,PRECIPITACION,PTPM_TT_M,Precipitación total mensual,Mensual,1984-12-01,15.9,50,,900,8.273474,chirps-v2.0.1984.12.tif
494934,28010360,ATANQUEZ [28010360],10.69733333,-73.35305556,800,Pluviométrica,INSTITUTO DE HIDROLOGIA METEOROLOGIA Y ESTUDIOS AMBIENTALES,Area Operativa 05 - Magdalena-Cesar-Guajira,Cesar,Valledupar,1959-04-15,,PRECIPITACION,PTPM_TT_M,Precipitación total mensual,Mensual,1984-12-01,0.0,50,,900,11.534719,chirps-v2.0.1984.12.tif
495545,28035020,CALLAO EL [28035020],10.36305556,-73.31944444,110,Climática Ordinaria,INSTITUTO DE HIDROLOGIA METEOROLOGIA Y ESTUDIOS AMBIENTALES,Area Operativa 05 - Magdalena-Cesar-Guajira,Cesar,Valledupar,1968-03-15,,PRECIPITACION,PTPM_TT_M,Precipitación total mensual,Mensual,1984-12-01,0.0,50,,900,9.9909725,chirps-v2.0.1984.12.tif
496242,28040170,CUEVAS LAS [28040170],10.46666667,-73.56666667,1260,Pluviográfica,INSTITUTO DE HIDROLOGIA METEOROLOGIA Y ESTUDIOS AMBIENTALES,Area Operativa 05 - Magdalena-Cesar-Guajira,Cesar,Pueblo Bello,1963-06-15,1996-02-15 00:00:00,PRECIPITACION,PTPM_TT_M,Precipitación total mensual,Mensual,1984-12-01,42.0,50,,900,11.746777,chirps-v2.0.1984.12.tif
496814,28010040,MANAURE [28010040],10.39138889,-73.02527778,740,Pluviométrica,INSTITUTO DE HIDROLOGIA METEOROLOGIA Y ESTUDIOS AMBIENTALES,Area Operativa 05 - Magdalena-Cesar-Guajira,Cesar,Manaure Balcón Del Cesar,1975-09-15,,PRECIPITACION,PTPM_TT_M,Precipitación total mensual,Mensual,1984-12-01,14.3,50,,900,8.8698635,chirps-v2.0.1984.12.tif
497517,28040010,PUEBLO BELLO [28040010],10.41463889,-73.58502778,10,Pluviométrica,INSTITUTO DE HIDROLOGIA METEOROLOGIA Y ESTUDIOS AMBIENTALES,Area Operativa 05 - Magdalena-Cesar-Guajira,Cesar,Pueblo Bello,1963-01-15,,PRECIPITACION,PTPM_TT_M,Precipitación total mensual,Mensual,1984-12-01,28.0,50,,900,17.238014,chirps-v2.0.1984.12.tif
497980,28030220,SAN ANGEL [28030220],10.34705556,-73.44413889,244,Pluviométrica,INSTITUTO DE HIDROLOGIA METEOROLOGIA Y ESTUDIOS AMBIENTALES,Area Operativa 05 - Magdalena-Cesar-Guajira,Cesar,Valledupar,1983-06-15,,PRECIPITACION,PTPM_TT_M,Precipitación total mensual,Mensual,1984-12-01,0.0,50,,900,13.96708,chirps-v2.0.1984.12.tif
498457,28025040,SAN JOSE D ORIENTE [28025040],10.35,-73.05,850,Climática Ordinaria,INSTITUTO DE HIDROLOGIA METEOROLOGIA Y ESTUDIOS AMBIENTALES,Area Operativa 05 - Magdalena-Cesar-Guajira,Cesar,La Paz,1975-08-15,1998-05-15 00:00:00,PRECIPITACION,PTPM_TT_M,Precipitación total mensual,Mensual,1984-12-01,0.4,50,,900,12.801638,chirps-v2.0.1984.12.tif
498732,29060090,SAN SEBASTIAN DE [29060090],10.56330556,-73.60380556,20,Pluviométrica,INSTITUTO DE HIDROLOGIA METEOROLOGIA Y ESTUDIOS AMBIENTALES,Area Operativa 05 - Magdalena-Cesar-Guajira,Cesar,Pueblo Bello,1968-05-15,,PRECIPITACION,PTPM_TT_M,Precipitación total mensual,Mensual,1984-12-01,2.0,50,,900,27.188606,chirps-v2.0.1984.12.tif
499365,28010140,VILLA CARMELITA [28010140],10.53333333,-73.3,450,Pluviométrica,INSTITUTO DE HIDROLOGIA METEOROLOGIA Y ESTUDIOS AMBIENTALES,Area Operativa 05 - Magdalena-Cesar-Guajira,Cesar,Valledupar,1968-09-15,2004-08-15 00:00:00,PRECIPITACION,PTPM_TT_M,Precipitación total mensual,Mensual,1984-12-01,0.0,50,,900,15.372905,chirps-v2.0.1984.12.tif
499826,28010090,PATILLAL [28010090],10.70386111,-73.21161111,450,Pluviométrica,INSTITUTO DE HIDROLOGIA METEOROLOGIA Y ESTUDIOS AMBIENTALES,Area Operativa 05 - Magdalena-Cesar-Guajira,Cesar,Valledupar,1962-12-15,,PRECIPITACION,PTPM_TT_M,Precipitación total mensual,Mensual,1984-12-01,0.0,50,,900,8.488673,chirps-v2.0.1984.12.tif
500599,28045010,PUEBLO BELLO  [28045010],10.37,-73.63,1000,Climática Ordinaria,FEDERACION NACIONAL DE CAFETEROS,Area Operativa 05 - Magdalena-Cesar-Guajira,Cesar,Pueblo Bello,1954-02-15,2020-10-21 17:13:00,PRECIPITACION,PTPM_TT_M,Precipitación total mensual,Mensual,1984-12-01,0.0,50,,900,17.187943,chirps-v2.0.1984.12.tif
500968,28010130,SARACHUI [28010130],10.78333333,-73.4,1560,Pluviométrica,INSTITUTO DE HIDROLOGIA METEOROLOGIA Y ESTUDIOS AMBIENTALES,Area Operativa 05 - Magdalena-Cesar-Guajira,Cesar,Valledupar,1968-04-15,1990-05-15 00:00:00,PRECIPITACION,PTPM_TT_M,Precipitación total mensual,Mensual,1984-12-01,0.0,50,,900,16.250984,chirps-v2.0.1984.12.tif
501286,15060080,CANAVERALES [15060080],10.75777778,-72.84522222,230,Pluviométrica,INSTITUTO DE HIDROLOGIA METEOROLOGIA Y ESTUDIOS AMBIENTALES,Area Operativa 05 - Magdalena-Cesar-Guajira,La Guajira,San Juan Del Cesar,1963-08-15,,PRECIPITACION,PTPM_TT_M,Precipitación total mensual,Mensual,1984-12-01,5.0,50,,900,8.043851,chirps-v2.0.1984.12.tif
501839,15060150,CONEJO EL [15060150],10.77794444,-72.79819444,350,Pluviométrica,INSTITUTO DE HIDROLOGIA METEOROLOGIA Y ESTUDIOS AMBIENTALES,Area Operativa 05 - Magdalena-Cesar-Guajira,La Guajira,Fonseca,1975-10-15,,PRECIPITACION,PTPM_TT_M,Precipitación total mensual,Mensual,1984-12-01,0.0,50,,900,10.5850525,chirps-v2.0.1984.12.tif
502460,28010200,HATICO D LOS INDIO [28010200],10.86022222,-73.11416667,594,Pluviométrica,INSTITUTO DE HIDROLOGIA METEOROLOGIA Y ESTUDIOS AMBIENTALES,Area Operativa 05 - Magdalena-Cesar-Guajira,La Guajira,San Juan Del Cesar,1970-01-15,,PRECIPITACION,PTPM_TT_M,Precipitación total mensual,Mensual,1984-12-01,7.0,50,,900,4.547813,chirps-v2.0.1984.12.tif
503034,15060070,JUGUETE EL [15060070],10.786,-72.76836111,390,Pluviométrica,INSTITUTO DE HIDROLOGIA METEOROLOGIA Y ESTUDIOS AMBIENTALES,Area Operativa 05 - Magdalena-Cesar-Guajira,La Guajira,Fonseca,1971-05-15,2014-08-28 00:00:00,PRECIPITACION,PTPM_TT_M,Precipitación total mensual,Mensual,1984-12-01,0.0,50,,900,10.5850525,chirps-v2.0.1984.12.tif
503558,15065040,LA PAULINA - AUT [15065040],10.89813889,-72.82847222,170,Climática Principal,INSTITUTO DE HIDROLOGIA METEOROLOGIA Y ESTUDIOS AMBIENTALES,Area Operativa 05 - Magdalena-Cesar-Guajira,La Guajira,Fonseca,1966-09-15,,PRECIPITACION,PTPM_TT_M,Precipitación total mensual,Mensual,1984-12-01,0.2,50,,900,8.500088,chirps-v2.0.1984.12.tif
504132,15060050,SABANAS DE MANUELA [15060050],10.953,-73.04797222,420,Pluviométrica,INSTITUTO DE HIDROLOGIA METEOROLOGIA Y ESTUDIOS AMBIENTALES,Area Operativa 05 - Magdalena-Cesar-Guajira,La Guajira,Distracción,1963-08-15,,PRECIPITACION,PTPM_TT_M,Precipitación total mensual,Mensual,1984-12-01,2.0,50,,900,8.001536,chirps-v2.0.1984.12.tif
504670,28015070,URUMITA [28015070],10.56638889,-73.01638889,255,Climática Ordinaria,INSTITUTO DE HIDROLOGIA METEOROLOGIA Y ESTUDIOS AMBIENTALES,Area Operativa 05 - Magdalena-Cesar-Guajira,La Guajira,Urumita,1975-08-15,,PRECIPITACION,PTPM_TT_M,Precipitación total mensual,Mensual,1984-12-01,0.0,50,,900,8.292387,chirps-v2.0.1984.12.tif
505255,28010340,VILLANUEVA [28010340],10.61583333,-72.98194444,340,Pluviométrica,INSTITUTO DE HIDROLOGIA METEOROLOGIA Y ESTUDIOS AMBIENTALES,Area Operativa 05 - Magdalena-Cesar-Guajira,La Guajira,Villanueva,1970-08-15,,PRECIPITACION,PTPM_TT_M,Precipitación total mensual,Mensual,1984-12-01,0.0,50,,900,7.3473983,chirps-v2.0.1984.12.tif
505943,25025090,AEROPUERTO LAS FLORES [25025090],9.046333333,-73.97083333,34,Climática Principal,INSTITUTO DE HIDROLOGIA METEOROLOGIA Y ESTUDIOS AMBIENTALES,Area Operativa 05 - Magdalena-Cesar-Guajira,Magdalena,El Banco,1952-02-15,,PRECIPITACION,PTPM_TT_M,Precipitación total mensual,Mensual,1984-12-01,0.0,50,,900,2.0441506,chirps-v2.0.1984.12.tif
506500,28040320,BRILLANTE EL [28040320],9.70275,-73.95913889,135,Pluviométrica,INSTITUTO DE HIDROLOGIA METEOROLOGIA Y ESTUDIOS AMBIENTALES,Area Operativa 05 - Magdalena-Cesar-Guajira,Magdalena,Santa Ana,1972-07-15,,PRECIPITACION,PTPM_TT_M,Precipitación total mensual,Mensual,1984-12-01,0.0,50,,900,6.311861,chirps-v2.0.1984.12.tif
506958,25021620,IRAN [25021620],9.683777778,-74.32216667,80,Pluviométrica,INSTITUTO DE HIDROLOGIA METEOROLOGIA Y ESTUDIOS AMBIENTALES,Area Operativa 05 - Magdalena-Cesar-Guajira,Magdalena,Nueva Granada,1982-06-15,,PRECIPITACION,PTPM_TT_M,Precipitación total mensual,Mensual,1984-12-01,0.0,50,,900,6.2654896,chirps-v2.0.1984.12.tif
507520,25021040,MENCHIQUEJO [25021040],9.188055556,-74.04422222,25,Pluviométrica,INSTITUTO DE HIDROLOGIA METEOROLOGIA Y ESTUDIOS AMBIENTALES,Area Operativa 05 - Magdalena-Cesar-Guajira,Magdalena,El Banco,1974-09-15,,PRECIPITACION,PTPM_TT_M,Precipitación total mensual,Mensual,1984-12-01,0.0,50,,900,7.4464383,chirps-v2.0.1984.12.tif
508066,25021200,NEGRITOS LOS [25021200],9.026666667,-74.07944444,26,Pluviométrica,INSTITUTO DE HIDROLOGIA METEOROLOGIA Y ESTUDIOS AMBIENTALES,Area Operativa 02 - Atlántico-Bolivar-Sucre,Magdalena,El Banco,1976-07-15,,PRECIPITACION,PTPM_TT_M,Precipitación total mensual,Mensual,1984-12-01,0.0,50,,900,2.6184347,chirps-v2.0.1984.12.tif
508588,25021500,PUEBLITO EL [25021500],9.581166667,-74.35225,35,Pluviométrica,INSTITUTO DE HIDROLOGIA METEOROLOGIA Y ESTUDIOS AMBIENTALES,Area Operativa 05 - Magdalena-Cesar-Guajira,Magdalena,Santa Ana,1976-10-15,,PRECIPITACION,PTPM_TT_M,Precipitación total mensual,Mensual,1984-12-01,0.0,50,,900,4.5770593,chirps-v2.0.1984.12.tif
509065,25021380,SAN ROQUE ALERTAS [25021380],9.07,-74.15,24,Pluviométrica,INSTITUTO DE HIDROLOGIA METEOROLOGIA Y ESTUDIOS AMBIENTALES,Area Operativa 02 - Atlántico-Bolivar-Sucre,Magdalena,El Banco,1980-05-15,,PRECIPITACION,PTPM_TT_M,Precipitación total mensual,Mensual,1984-12-01,0.0,50,,900,7.796159,chirps-v2.0.1984.12.tif
509613,25020900,SAN SEBASTIAN [25020900],9.233888889,-74.35583333,65,Pluviométrica,INSTITUTO DE HIDROLOGIA METEOROLOGIA Y ESTUDIOS AMBIENTALES,Area Operativa 02 - Atlántico-Bolivar-Sucre,Magdalena,San Sebastián De Buenavista,1974-01-15,,PRECIPITACION,PTPM_TT_M,Precipitación total mensual,Mensual,1984-12-01,0.0,50,,900,3.101197,chirps-v2.0.1984.12.tif
510699,28040300,VILLA CONCEPCION [28040300],9.706305556,-73.85944444,120,Pluviométrica,INSTITUTO DE HIDROLOGIA METEOROLOGIA Y ESTUDIOS AMBIENTALES,Area Operativa 05 - Magdalena-Cesar-Guajira,Magdalena,Ariguaní (El Dificil),1972-07-15,,PRECIPITACION,PTPM_TT_M,Precipitación total mensual,Mensual,1984-12-01,0.0,50,,900,6.1017284,chirps-v2.0.1984.12.tif
511193,25021540,AGUADAS LAS ALERTA [25021540],8.949997222,-74.049997222,30,Pluviométrica,INSTITUTO DE HIDROLOGIA METEOROLOGIA Y ESTUDIOS AMBIENTALES,Area Operativa 02 - Atlántico-Bolivar-Sucre,Bolivar,San Martín De Loba,1978-11-15,,PRECIPITACION,PTPM_TT_M,Precipitación total mensual,Mensual,1984-12-01,0.0,50,,900,7.098871,chirps-v2.0.1984.12.tif
511746,25020880,BARRANCO DE LOBA [25020880],8.946666667,-74.11055556,25,Pluviométrica,INSTITUTO DE HIDROLOGIA METEOROLOGIA Y ESTUDIOS AMBIENTALES,Area Operativa 02 - Atlántico-Bolivar-Sucre,Bolivar,Barranco De Loba,1974-09-15,,PRECIPITACION,PTPM_TT_M,Precipitación total mensual,Mensual,1984-12-01,0.0,50,,900,6.97571,chirps-v2.0.1984.12.tif
512288,25020890,CHILLOA [25020890],9.119388889,-74.22194444,20,Pluviométrica,INSTITUTO DE HIDROLOGIA METEOROLOGIA Y ESTUDIOS AMBIENTALES,Area Operativa 02 - Atlántico-Bolivar-Sucre,Bolivar,Margarita,1974-09-15,,PRECIPITACION,PTPM_TT_M,Precipitación total mensual,Mensual,1984-12-01,0.0,50,,900,7.130995,chirps-v2.0.1984.12.tif
512808,25021320,SUDAN EL [25021320],8.643333333,-74.21222222,23,Pluviométrica,INSTITUTO DE HIDROLOGIA METEOROLOGIA Y ESTUDIOS AMBIENTALES,Area Operativa 02 - Atlántico-Bolivar-Sucre,Bolivar,Tiquisio (Puerto Rico),1976-10-15,,PRECIPITACION,PTPM_TT_M,Precipitación total mensual,Mensual,1984-12-01,0.0,50,,900,10.871454,chirps-v2.0.1984.12.tif
513951,25020870,PLAYITAS [25020870],8.822777778,-73.96583333,40,Pluviométrica,INSTITUTO DE HIDROLOGIA METEOROLOGIA Y ESTUDIOS AMBIENTALES,Area Operativa 02 - Atlántico-Bolivar-Sucre,Bolivar,San Martín De Loba,1974-09-15,,PRECIPITACION,PTPM_TT_M,Precipitación total mensual,Mensual,1984-12-01,0.0,50,,900,7.8407297,chirps-v2.0.1984.12.tif
514511,25021090,SANTA ROSA [25021090],9.093333333,-74.31388889,40,Pluviométrica,INSTITUTO DE HIDROLOGIA METEOROLOGIA Y ESTUDIOS AMBIENTALES,Area Operativa 02 - Atlántico-Bolivar-Sucre,Bolivar,San Fernando,1974-10-15,,PRECIPITACION,PTPM_TT_M,Precipitación total mensual,Mensual,1984-12-01,0.0,50,,900,4.498052,chirps-v2.0.1984.12.tif
