,CodigoEstacion,NombreEstacion,Latitud,Longitud,Altitud,Categoria,Entidad,AreaOperativa,Departamento,Municipio,FechaInstalacion,FechaSuspension,IdParametro,Etiqueta,DescripcionSerie,Frecuencia,Fecha,Valor,Grado,Calificador,NivelAprobacion,SatValue,SatDesc
525,23210020,GLORIA LA [23210020],8.630555556,-73.80416667,40,Pluviométrica,INSTITUTO DE HIDROLOGIA METEOROLOGIA Y ESTUDIOS AMBIENTALES,Area Operativa 08 - Santanderes-Arauca,Cesar,La Gloria,1995-05-15,,PRECIPITACION,PTPM_TT_M,Precipitación total mensual,Mensual,2012-09-01,190.0,50,,900,168.60022,chirps-v2.0.2012.09.tif
1753,25020670,RAYA LA [25020670],9.050277778,-73.55972222,500,Pluviométrica,INSTITUTO DE HIDROLOGIA METEOROLOGIA Y ESTUDIOS AMBIENTALES,Area Operativa 05 - Magdalena-Cesar-Guajira,Cesar,Pailitas,1972-09-15,,PRECIPITACION,PTPM_TT_M,Precipitación total mensual,Mensual,2012-09-01,157.6,50,,900,148.96774,chirps-v2.0.2012.09.tif
2193,25021640,SANTA ISABEL [25021640],8.71275,-73.70255556,40,Pluviométrica,INSTITUTO DE HIDROLOGIA METEOROLOGIA Y ESTUDIOS AMBIENTALES,Area Operativa 05 - Magdalena-Cesar-Guajira,Cesar,Pelaya,1984-11-15,,PRECIPITACION,PTPM_TT_M,Precipitación total mensual,Mensual,2012-09-01,236.3,50,,900,175.9935,chirps-v2.0.2012.09.tif
3295,25020090,TAMALAMEQUE [25020090],8.860388889,-73.81544444,20,Pluviométrica,INSTITUTO DE HIDROLOGIA METEOROLOGIA Y ESTUDIOS AMBIENTALES,Area Operativa 05 - Magdalena-Cesar-Guajira,Cesar,Tamalameque,1960-02-15,,PRECIPITACION,PTPM_TT_M,Precipitación total mensual,Mensual,2012-09-01,194.0,50,,900,186.5087,chirps-v2.0.2012.09.tif
3835,25020650,TERROR EL HACIENDA [25020650],8.938777778,-73.56022222,250,Pluviométrica,INSTITUTO DE HIDROLOGIA METEOROLOGIA Y ESTUDIOS AMBIENTALES,Area Operativa 05 - Magdalena-Cesar-Guajira,Cesar,Chimichagua,1972-09-15,,PRECIPITACION,PTPM_TT_M,Precipitación total mensual,Mensual,2012-09-01,57.8,50,,900,152.41461,chirps-v2.0.2012.09.tif
4407,25020660,ZAPATOZA [25020660],9.00975,-73.75402778,90,Pluviométrica,INSTITUTO DE HIDROLOGIA METEOROLOGIA Y ESTUDIOS AMBIENTALES,Area Operativa 05 - Magdalena-Cesar-Guajira,Cesar,Curumaní,1972-09-15,,PRECIPITACION,PTPM_TT_M,Precipitación total mensual,Mensual,2012-09-01,236.0,50,,900,164.38889,chirps-v2.0.2012.09.tif
5077,28040150,BELLAVISTA [28040150],10.30805556,-74.03922222,140,Pluviométrica,INSTITUTO DE HIDROLOGIA METEOROLOGIA Y ESTUDIOS AMBIENTALES,Area Operativa 05 - Magdalena-Cesar-Guajira,Magdalena,Algarrobo,1963-02-15,,PRECIPITACION,PTPM_TT_M,Precipitación total mensual,Mensual,2012-09-01,73.8,50,,900,132.19012,chirps-v2.0.2012.09.tif
5593,28040360,CABANA LA HACIENDA [28040360],9.861,-74.07672222,100,Pluviométrica,INSTITUTO DE HIDROLOGIA METEOROLOGIA Y ESTUDIOS AMBIENTALES,Area Operativa 05 - Magdalena-Cesar-Guajira,Magdalena,Ariguaní (El Dificil),1979-01-15,,PRECIPITACION,PTPM_TT_M,Precipitación total mensual,Mensual,2012-09-01,123.0,50,,900,137.00278,chirps-v2.0.2012.09.tif
6254,29060150,DESTINO EL [29060150],10.57366667,-74.22411111,20,Pluviométrica,INSTITUTO DE HIDROLOGIA METEOROLOGIA Y ESTUDIOS AMBIENTALES,Area Operativa 05 - Magdalena-Cesar-Guajira,Magdalena,El Retén,1967-01-15,,PRECIPITACION,PTPM_TT_M,Precipitación total mensual,Mensual,2012-09-01,123.0,50,,900,164.61237,chirps-v2.0.2012.09.tif
6683,29060560,DONA MARIA [29060560],10.38444444,-74.17794444,50,Pluviométrica,INSTITUTO DE HIDROLOGIA METEOROLOGIA Y ESTUDIOS AMBIENTALES,Area Operativa 05 - Magdalena-Cesar-Guajira,Magdalena,Fundación,1984-11-15,,PRECIPITACION,PTPM_TT_M,Precipitación total mensual,Mensual,2012-09-01,92.0,50,,900,132.84769,chirps-v2.0.2012.09.tif
7456,29060040,FUNDACION [29060040],10.52436111,-74.18222222,40,Pluviométrica,INSTITUTO DE HIDROLOGIA METEOROLOGIA Y ESTUDIOS AMBIENTALES,Area Operativa 05 - Magdalena-Cesar-Guajira,Magdalena,Fundación,1958-03-15,,PRECIPITACION,PTPM_TT_M,Precipitación total mensual,Mensual,2012-09-01,68.5,50,,900,156.98769,chirps-v2.0.2012.09.tif
8001,29060200,MARIA LA [29060200],10.54066667,-74.18697222,30,Pluviométrica,INSTITUTO DE HIDROLOGIA METEOROLOGIA Y ESTUDIOS AMBIENTALES,Area Operativa 05 - Magdalena-Cesar-Guajira,Magdalena,Aracataca,1974-11-15,,PRECIPITACION,PTPM_TT_M,Precipitación total mensual,Mensual,2012-09-01,78.0,50,,900,156.98769,chirps-v2.0.2012.09.tif
8699,28040100,MONTERRUBIO [28040100],10.23369444,-74.27325,100,Pluviométrica,INSTITUTO DE HIDROLOGIA METEOROLOGIA Y ESTUDIOS AMBIENTALES,Area Operativa 05 - Magdalena-Cesar-Guajira,Magdalena,Pivijai,1963-01-15,,PRECIPITACION,PTPM_TT_M,Precipitación total mensual,Mensual,2012-09-01,52.0,50,,900,125.35708,chirps-v2.0.2012.09.tif
9160,25021630,NUEVA GRANADA [25021630],9.80175,-74.38855556,110,Pluviométrica,INSTITUTO DE HIDROLOGIA METEOROLOGIA Y ESTUDIOS AMBIENTALES,Area Operativa 05 - Magdalena-Cesar-Guajira,Magdalena,Nueva Granada,1982-06-15,,PRECIPITACION,PTPM_TT_M,Precipitación total mensual,Mensual,2012-09-01,142.0,50,,900,126.30286,chirps-v2.0.2012.09.tif
9832,28040140,SAN ANGEL [28040140],10.03305556,-74.21261111,140,Pluviométrica,INSTITUTO DE HIDROLOGIA METEOROLOGIA Y ESTUDIOS AMBIENTALES,Area Operativa 05 - Magdalena-Cesar-Guajira,Magdalena,Sabanas De San Ángel,1963-01-15,,PRECIPITACION,PTPM_TT_M,Precipitación total mensual,Mensual,2012-09-01,217.0,50,,900,138.81491,chirps-v2.0.2012.09.tif
10393,29060100,SANTA ROSA DE LIMA [29060100],10.40275,-74.108,75,Pluviométrica,INSTITUTO DE HIDROLOGIA METEOROLOGIA Y ESTUDIOS AMBIENTALES,Area Operativa 05 - Magdalena-Cesar-Guajira,Magdalena,Fundación,1975-08-15,,PRECIPITACION,PTPM_TT_M,Precipitación total mensual,Mensual,2012-09-01,143.0,50,,900,139.94846,chirps-v2.0.2012.09.tif
11471,29060030,BONGO EL [29060030],10.64877778,-74.3755,20,Pluviométrica,INSTITUTO DE HIDROLOGIA METEOROLOGIA Y ESTUDIOS AMBIENTALES,Area Operativa 05 - Magdalena-Cesar-Guajira,Magdalena,El Retén,1975-09-15,,PRECIPITACION,PTPM_TT_M,Precipitación total mensual,Mensual,2012-09-01,46.0,50,,900,114.78192,chirps-v2.0.2012.09.tif
12130,29060140,CARMEN EL [29060140],10.6755,-74.20644444,25,Pluviométrica,INSTITUTO DE HIDROLOGIA METEOROLOGIA Y ESTUDIOS AMBIENTALES,Area Operativa 05 - Magdalena-Cesar-Guajira,Magdalena,Zona Bananera,1967-03-15,,PRECIPITACION,PTPM_TT_M,Precipitación total mensual,Mensual,2012-09-01,354.0,50,,900,133.5431,chirps-v2.0.2012.09.tif
12868,29060060,CENIZO EL [29060060],10.65161111,-74.07322222,450,Pluviométrica,INSTITUTO DE HIDROLOGIA METEOROLOGIA Y ESTUDIOS AMBIENTALES,Area Operativa 05 - Magdalena-Cesar-Guajira,Magdalena,Aracataca,1959-03-15,,PRECIPITACION,PTPM_TT_M,Precipitación total mensual,Mensual,2012-09-01,362.0,50,,900,180.35512,chirps-v2.0.2012.09.tif
13431,29060190,FLORIDA LA [29060190],10.61063889,-74.25538889,26,Pluviométrica,INSTITUTO DE HIDROLOGIA METEOROLOGIA Y ESTUDIOS AMBIENTALES,Area Operativa 05 - Magdalena-Cesar-Guajira,Magdalena,El Retén,1973-04-15,2019-02-07 11:43:00,PRECIPITACION,PTPM_TT_M,Precipitación total mensual,Mensual,2012-09-01,193.0,50,,900,134.11775,chirps-v2.0.2012.09.tif
14023,29060170,GAVILAN [29060170],10.68044444,-74.33069444,20,Pluviométrica,INSTITUTO DE HIDROLOGIA METEOROLOGIA Y ESTUDIOS AMBIENTALES,Area Operativa 05 - Magdalena-Cesar-Guajira,Magdalena,El Retén,1967-03-15,,PRECIPITACION,PTPM_TT_M,Precipitación total mensual,Mensual,2012-09-01,63.5,50,,900,119.23211,chirps-v2.0.2012.09.tif
14676,29065020,PADELMA [29065020],10.72111111,-74.19972222,20,Climática Ordinaria,INSTITUTO DE HIDROLOGIA METEOROLOGIA Y ESTUDIOS AMBIENTALES,Area Operativa 05 - Magdalena-Cesar-Guajira,Magdalena,Zona Bananera,1967-08-15,,PRECIPITACION,PTPM_TT_M,Precipitación total mensual,Mensual,2012-09-01,160.7,50,,900,139.86966,chirps-v2.0.2012.09.tif
15325,29060270,PALO ALTO [29060270],10.7225,-74.27191667,25,Pluviométrica,INSTITUTO DE HIDROLOGIA METEOROLOGIA Y ESTUDIOS AMBIENTALES,Area Operativa 05 - Magdalena-Cesar-Guajira,Magdalena,Puebloviejo,1967-01-15,,PRECIPITACION,PTPM_TT_M,Precipitación total mensual,Mensual,2012-09-01,123.0,50,,900,118.17253,chirps-v2.0.2012.09.tif
15982,29060240,UNION LA [29060240],10.70655556,-74.22355556,20,Pluviométrica,INSTITUTO DE HIDROLOGIA METEOROLOGIA Y ESTUDIOS AMBIENTALES,Area Operativa 05 - Magdalena-Cesar-Guajira,Magdalena,Zona Bananera,1967-01-15,2019-02-07 11:43:00,PRECIPITACION,PTPM_TT_M,Precipitación total mensual,Mensual,2012-09-01,195.0,50,,900,122.20903,chirps-v2.0.2012.09.tif
16786,29060180,ESPERANZA LA [29060180],10.74252778,-74.30627778,25,Pluviométrica,INSTITUTO DE HIDROLOGIA METEOROLOGIA Y ESTUDIOS AMBIENTALES,Area Operativa 05 - Magdalena-Cesar-Guajira,Magdalena,Puebloviejo,1975-10-15,,PRECIPITACION,PTPM_TT_M,Precipitación total mensual,Mensual,2012-09-01,200.0,50,,900,113.56811,chirps-v2.0.2012.09.tif
17316,29060340,PALMOR EL [29060340],10.77344444,-74.02563889,1200,Pluviométrica,INSTITUTO DE HIDROLOGIA METEOROLOGIA Y ESTUDIOS AMBIENTALES,Area Operativa 05 - Magdalena-Cesar-Guajira,Magdalena,Ciénaga,1975-09-15,,PRECIPITACION,PTPM_TT_M,Precipitación total mensual,Mensual,2012-09-01,225.0,50,,900,205.76933,chirps-v2.0.2012.09.tif
18544,29065030,PRADO SEVILLA [29065030],10.76416667,-74.15472222,18,Climática Ordinaria,INSTITUTO DE HIDROLOGIA METEOROLOGIA Y ESTUDIOS AMBIENTALES,Area Operativa 05 - Magdalena-Cesar-Guajira,Magdalena,Zona Bananera,1970-07-15,2019-02-07 11:32:00,PRECIPITACION,PTPM_TT_M,Precipitación total mensual,Mensual,2012-09-01,121.0,50,,900,123.53992,chirps-v2.0.2012.09.tif
19110,29060250,PROYECTOS LOS [29060250],10.73672222,-74.23708333,20,Pluviométrica,INSTITUTO DE HIDROLOGIA METEOROLOGIA Y ESTUDIOS AMBIENTALES,Area Operativa 05 - Magdalena-Cesar-Guajira,Magdalena,Zona Bananera,1967-01-15,,PRECIPITACION,PTPM_TT_M,Precipitación total mensual,Mensual,2012-09-01,133.5,50,,900,122.20903,chirps-v2.0.2012.09.tif
20497,29060070,SAN PABLO [29060070],10.80819444,-74.02680556,800,Pluviométrica,INSTITUTO DE HIDROLOGIA METEOROLOGIA Y ESTUDIOS AMBIENTALES,Area Operativa 05 - Magdalena-Cesar-Guajira,Magdalena,Ciénaga,1960-08-15,,PRECIPITACION,PTPM_TT_M,Precipitación total mensual,Mensual,2012-09-01,287.0,50,,900,196.43985,chirps-v2.0.2012.09.tif
21530,29060160,ENANO EL [29060160],10.90219444,-74.18947222,25,Pluviométrica,INSTITUTO DE HIDROLOGIA METEOROLOGIA Y ESTUDIOS AMBIENTALES,Area Operativa 05 - Magdalena-Cesar-Guajira,Magdalena,Zona Bananera,1974-11-15,,PRECIPITACION,PTPM_TT_M,Precipitación total mensual,Mensual,2012-09-01,42.7,50,,900,91.28929,chirps-v2.0.2012.09.tif
22173,29060210,PALMA LA [29060210],10.96683333,-74.20469444,23,Pluviométrica,INSTITUTO DE HIDROLOGIA METEOROLOGIA Y ESTUDIOS AMBIENTALES,Area Operativa 05 - Magdalena-Cesar-Guajira,Magdalena,Ciénaga,1967-03-15,,PRECIPITACION,PTPM_TT_M,Precipitación total mensual,Mensual,2012-09-01,51.9,50,,900,70.931145,chirps-v2.0.2012.09.tif
22833,29060280,SAN ISIDRO [29060280],10.90083333,-74.22061111,25,Pluviométrica,INSTITUTO DE HIDROLOGIA METEOROLOGIA Y ESTUDIOS AMBIENTALES,Area Operativa 05 - Magdalena-Cesar-Guajira,Magdalena,Zona Bananera,1967-01-15,,PRECIPITACION,PTPM_TT_M,Precipitación total mensual,Mensual,2012-09-01,30.8,50,,900,80.965996,chirps-v2.0.2012.09.tif
23351,29060310,SEVILLANO [29060310],10.93305556,-74.25244444,5,Pluviométrica,INSTITUTO DE HIDROLOGIA METEOROLOGIA Y ESTUDIOS AMBIENTALES,Area Operativa 05 - Magdalena-Cesar-Guajira,Magdalena,Ciénaga,1979-09-15,,PRECIPITACION,PTPM_TT_M,Precipitación total mensual,Mensual,2012-09-01,85.0,50,,900,70.89957,chirps-v2.0.2012.09.tif
24029,29060120,TASAJERA [29060120],10.97622222,-74.36175,2,Pluviométrica,INSTITUTO DE HIDROLOGIA METEOROLOGIA Y ESTUDIOS AMBIENTALES,Area Operativa 05 - Magdalena-Cesar-Guajira,Magdalena,Puebloviejo,1965-08-15,,PRECIPITACION,PTPM_TT_M,Precipitación total mensual,Mensual,2012-09-01,162.0,50,,900,75.42793,chirps-v2.0.2012.09.tif
24610,15015020,YE LA [15015020],10.99241667,-74.21113889,20,Climática Ordinaria,INSTITUTO DE HIDROLOGIA METEOROLOGIA Y ESTUDIOS AMBIENTALES,Area Operativa 05 - Magdalena-Cesar-Guajira,Magdalena,Ciénaga,1967-07-15,2019-02-07 11:34:00,PRECIPITACION,PTPM_TT_M,Precipitación total mensual,Mensual,2012-09-01,34.0,50,,900,70.931145,chirps-v2.0.2012.09.tif
25098,16060010,CNO LA RAYA [16060010],8.834722222,-72.79166667,75,Pluviométrica,INSTITUTO DE HIDROLOGIA METEOROLOGIA Y ESTUDIOS AMBIENTALES,Area Operativa 08 - Santanderes-Arauca,Norte De Santander,Tibú,1973-04-15,,PRECIPITACION,PTPM_TT_M,Precipitación total mensual,Mensual,2012-09-01,329.0,50,,900,236.18092,chirps-v2.0.2012.09.tif
26031,16070040,ORU [16070040],8.641111111,-72.90944444,150,Pluviométrica,INSTITUTO DE HIDROLOGIA METEOROLOGIA Y ESTUDIOS AMBIENTALES,Area Operativa 08 - Santanderes-Arauca,Norte De Santander,Tibú,1973-04-15,,PRECIPITACION,PTPM_TT_M,Precipitación total mensual,Mensual,2012-09-01,473.0,50,,900,279.9168,chirps-v2.0.2012.09.tif
27093,16070010,PUERTO BARCO [16070010],8.998055556,-72.89694444,50,Pluviométrica,INSTITUTO DE HIDROLOGIA METEOROLOGIA Y ESTUDIOS AMBIENTALES,Area Operativa 08 - Santanderes-Arauca,Norte De Santander,Tibú,1973-04-15,,PRECIPITACION,PTPM_TT_M,Precipitación total mensual,Mensual,2012-09-01,401.0,50,,900,254.23517,chirps-v2.0.2012.09.tif
390978,25020220,ASTREA [25020220],9.492944444,-73.97288889,50,Pluviométrica,INSTITUTO DE HIDROLOGIA METEOROLOGIA Y ESTUDIOS AMBIENTALES,Area Operativa 05 - Magdalena-Cesar-Guajira,Cesar,Astrea,1962-04-15,,PRECIPITACION,PTPM_TT_M,Precipitación total mensual,Mensual,2012-09-01,149.0,50,,900,137.86859,chirps-v2.0.2012.09.tif
391684,25020240,CANAL EL [25020240],9.410472222,-73.89041667,70,Pluviométrica,INSTITUTO DE HIDROLOGIA METEOROLOGIA Y ESTUDIOS AMBIENTALES,Area Operativa 05 - Magdalena-Cesar-Guajira,Cesar,Chimichagua,1963-03-15,,PRECIPITACION,PTPM_TT_M,Precipitación total mensual,Mensual,2012-09-01,175.0,50,,900,134.78645,chirps-v2.0.2012.09.tif
392277,25021240,CHIMICHAGUA [25021240],9.260083333,-73.80986111,138,Pluviométrica,INSTITUTO DE HIDROLOGIA METEOROLOGIA Y ESTUDIOS AMBIENTALES,Area Operativa 05 - Magdalena-Cesar-Guajira,Cesar,Chimichagua,1972-07-15,,PRECIPITACION,PTPM_TT_M,Precipitación total mensual,Mensual,2012-09-01,86.1,50,,900,149.31458,chirps-v2.0.2012.09.tif
393703,25020250,CURUMANI [25020250],9.197194444,-73.54194444,100,Pluviométrica,INSTITUTO DE HIDROLOGIA METEOROLOGIA Y ESTUDIOS AMBIENTALES,Area Operativa 05 - Magdalena-Cesar-Guajira,Cesar,Curumaní,1963-03-15,,PRECIPITACION,PTPM_TT_M,Precipitación total mensual,Mensual,2012-09-01,89.9,50,,900,156.62886,chirps-v2.0.2012.09.tif
394286,25020690,POPONTE [25020690],9.423277778,-73.41094444,500,Pluviométrica,INSTITUTO DE HIDROLOGIA METEOROLOGIA Y ESTUDIOS AMBIENTALES,Area Operativa 05 - Magdalena-Cesar-Guajira,Cesar,Curumaní,1972-09-15,,PRECIPITACION,PTPM_TT_M,Precipitación total mensual,Mensual,2012-09-01,174.0,50,,900,173.29916,chirps-v2.0.2012.09.tif
394878,25020920,PRIMAVERA LA [25020920],9.216666667,-73.41666667,500,Pluviométrica,INSTITUTO DE HIDROLOGIA METEOROLOGIA Y ESTUDIOS AMBIENTALES,Area Operativa 05 - Magdalena-Cesar-Guajira,Cesar,Curumaní,1972-09-15,2019-02-07 11:35:00,PRECIPITACION,PTPM_TT_M,Precipitación total mensual,Mensual,2012-09-01,40.0,50,,900,186.27812,chirps-v2.0.2012.09.tif
395500,25020260,RINCONHONDO [25020260],9.397027778,-73.48802778,100,Pluviométrica,INSTITUTO DE HIDROLOGIA METEOROLOGIA Y ESTUDIOS AMBIENTALES,Area Operativa 05 - Magdalena-Cesar-Guajira,Cesar,Chiriguaná,1963-03-15,,PRECIPITACION,PTPM_TT_M,Precipitación total mensual,Mensual,2012-09-01,440.0,50,,900,171.0425,chirps-v2.0.2012.09.tif
396210,25020270,SALOA [25020270],9.193166667,-73.73130556,90,Pluviométrica,INSTITUTO DE HIDROLOGIA METEOROLOGIA Y ESTUDIOS AMBIENTALES,Area Operativa 05 - Magdalena-Cesar-Guajira,Cesar,Chimichagua,1963-04-15,,PRECIPITACION,PTPM_TT_M,Precipitación total mensual,Mensual,2012-09-01,115.0,50,,900,155.25449,chirps-v2.0.2012.09.tif
478828,28025090,CENTENARIO HACIENDA [28025090],9.85025,-73.26547222,100,Climática Ordinaria,INSTITUTO DE HIDROLOGIA METEOROLOGIA Y ESTUDIOS AMBIENTALES,Area Operativa 05 - Magdalena-Cesar-Guajira,Cesar,Agustín Codazzi,1976-12-15,,PRECIPITACION,PTPM_TT_M,Precipitación total mensual,Mensual,2012-09-01,93.2,50,,900,89.21555,chirps-v2.0.2012.09.tif
479515,25020230,JAGUA LA [25020230],9.562166667,-73.33947222,170,Pluviométrica,INSTITUTO DE HIDROLOGIA METEOROLOGIA Y ESTUDIOS AMBIENTALES,Area Operativa 05 - Magdalena-Cesar-Guajira,Cesar,La Jagua De Ibirico,1963-08-15,,PRECIPITACION,PTPM_TT_M,Precipitación total mensual,Mensual,2012-09-01,101.0,50,,900,137.28806,chirps-v2.0.2012.09.tif
480688,25020280,LOMA LA [25020280],9.606527778,-73.61197222,30,Pluviométrica,INSTITUTO DE HIDROLOGIA METEOROLOGIA Y ESTUDIOS AMBIENTALES,Area Operativa 05 - Magdalena-Cesar-Guajira,Cesar,El Paso,1963-10-15,,PRECIPITACION,PTPM_TT_M,Precipitación total mensual,Mensual,2012-09-01,153.0,50,,900,136.11975,chirps-v2.0.2012.09.tif
481682,28040350,PASO EL   [28040350],9.656972222,-73.74369444,30,Pluviométrica,INSTITUTO DE HIDROLOGIA METEOROLOGIA Y ESTUDIOS AMBIENTALES,Area Operativa 05 - Magdalena-Cesar-Guajira,Cesar,El Paso,1972-08-15,,PRECIPITACION,PTPM_TT_M,Precipitación total mensual,Mensual,2012-09-01,101.0,50,,900,121.49142,chirps-v2.0.2012.09.tif
482299,28020080,PLAYAS LAS HACIENDA [28020080],9.848083333,-73.46219444,60,Pluviométrica,INSTITUTO DE HIDROLOGIA METEOROLOGIA Y ESTUDIOS AMBIENTALES,Area Operativa 05 - Magdalena-Cesar-Guajira,Cesar,Agustín Codazzi,1959-08-15,,PRECIPITACION,PTPM_TT_M,Precipitación total mensual,Mensual,2012-09-01,85.0,50,,900,93.08589,chirps-v2.0.2012.09.tif
482809,28020420,SAN GABRIEL [28020420],9.844611111,-73.54769444,70,Pluviométrica,INSTITUTO DE HIDROLOGIA METEOROLOGIA Y ESTUDIOS AMBIENTALES,Area Operativa 05 - Magdalena-Cesar-Guajira,Cesar,San Diego,1972-09-15,,PRECIPITACION,PTPM_TT_M,Precipitación total mensual,Mensual,2012-09-01,59.0,50,,900,93.46192,chirps-v2.0.2012.09.tif
483644,25021650,YUCAL EL [25021650],9.557388889,-73.87619444,40,Pluviométrica,INSTITUTO DE HIDROLOGIA METEOROLOGIA Y ESTUDIOS AMBIENTALES,Area Operativa 05 - Magdalena-Cesar-Guajira,Cesar,Astrea,1984-11-15,,PRECIPITACION,PTPM_TT_M,Precipitación total mensual,Mensual,2012-09-01,92.0,50,,900,128.55406,chirps-v2.0.2012.09.tif
484145,28040030,BOSCONIA [28040030],9.97575,-73.88175,130,Pluviométrica,INSTITUTO DE HIDROLOGIA METEOROLOGIA Y ESTUDIOS AMBIENTALES,Area Operativa 05 - Magdalena-Cesar-Guajira,Cesar,Bosconia,1979-11-15,,PRECIPITACION,PTPM_TT_M,Precipitación total mensual,Mensual,2012-09-01,236.0,50,,900,121.08975,chirps-v2.0.2012.09.tif
484645,28020460,CODAZZI DC [28020460],10.04463889,-73.24338889,90,Pluviométrica,INSTITUTO DE HIDROLOGIA METEOROLOGIA Y ESTUDIOS AMBIENTALES,Area Operativa 05 - Magdalena-Cesar-Guajira,Cesar,Agustín Codazzi,1979-11-15,,PRECIPITACION,PTPM_TT_M,Precipitación total mensual,Mensual,2012-09-01,81.0,50,,900,96.284225,chirps-v2.0.2012.09.tif
485139,28020150,ESPERANZA LA HACIENDA [28020150],10.02997222,-73.66883333,60,Pluviométrica,INSTITUTO DE HIDROLOGIA METEOROLOGIA Y ESTUDIOS AMBIENTALES,Area Operativa 05 - Magdalena-Cesar-Guajira,Cesar,Valledupar,1961-05-15,,PRECIPITACION,PTPM_TT_M,Precipitación total mensual,Mensual,2012-09-01,74.0,50,,900,100.18802,chirps-v2.0.2012.09.tif
485733,28035040,GUAYMARAL [28035040],9.904916667,-73.64752778,50,Climática Ordinaria,INSTITUTO DE HIDROLOGIA METEOROLOGIA Y ESTUDIOS AMBIENTALES,Area Operativa 05 - Magdalena-Cesar-Guajira,Cesar,Valledupar,1972-08-15,,PRECIPITACION,PTPM_TT_M,Precipitación total mensual,Mensual,2012-09-01,71.8,50,,900,98.73869,chirps-v2.0.2012.09.tif
486366,28040270,MANATURE HACIENDA [28040270],10.03511111,-73.78852778,150,Pluviométrica,INSTITUTO DE HIDROLOGIA METEOROLOGIA Y ESTUDIOS AMBIENTALES,Area Operativa 05 - Magdalena-Cesar-Guajira,Cesar,Bosconia,1968-09-15,,PRECIPITACION,PTPM_TT_M,Precipitación total mensual,Mensual,2012-09-01,64.0,50,,900,106.88742,chirps-v2.0.2012.09.tif
486935,28025070,MOTILONIA CODAZZI [28025070],10.00180556,-73.24938889,180,Agrometeorológica,INSTITUTO DE HIDROLOGIA METEOROLOGIA Y ESTUDIOS AMBIENTALES,Area Operativa 05 - Magdalena-Cesar-Guajira,Cesar,Agustín Codazzi,1956-01-15,,PRECIPITACION,PTPM_TT_M,Precipitación total mensual,Mensual,2012-09-01,51.4,50,,900,96.284225,chirps-v2.0.2012.09.tif
487638,28040070,PALMARIGUANI [28040070],9.930083333,-73.95488889,80,Pluviométrica,INSTITUTO DE HIDROLOGIA METEOROLOGIA Y ESTUDIOS AMBIENTALES,Area Operativa 05 - Magdalena-Cesar-Guajira,Cesar,Bosconia,1963-01-15,,PRECIPITACION,PTPM_TT_M,Precipitación total mensual,Mensual,2012-09-01,85.0,50,,900,126.82828,chirps-v2.0.2012.09.tif
488075,28040400,PALMASOLA [28040400],9.977416667,-73.88930556,50,Pluviométrica,INSTITUTO DE HIDROLOGIA METEOROLOGIA Y ESTUDIOS AMBIENTALES,Area Operativa 05 - Magdalena-Cesar-Guajira,Cesar,Bosconia,1984-06-15,2019-02-07 11:42:00,PRECIPITACION,PTPM_TT_M,Precipitación total mensual,Mensual,2012-09-01,114.0,50,,900,121.08975,chirps-v2.0.2012.09.tif
489310,28020440,SANTA TERESA HACIENDA [28020440],9.917027778,-73.28613889,80,Pluviométrica,INSTITUTO DE HIDROLOGIA METEOROLOGIA Y ESTUDIOS AMBIENTALES,Area Operativa 05 - Magdalena-Cesar-Guajira,Cesar,Agustín Codazzi,1959-04-15,,PRECIPITACION,PTPM_TT_M,Precipitación total mensual,Mensual,2012-09-01,60.0,50,,900,90.14347,chirps-v2.0.2012.09.tif
490338,28030190,CARACOLI [28030190],10.08869444,-73.73172222,220,Pluviométrica,INSTITUTO DE HIDROLOGIA METEOROLOGIA Y ESTUDIOS AMBIENTALES,Area Operativa 05 - Magdalena-Cesar-Guajira,Cesar,Valledupar,1972-07-15,,PRECIPITACION,PTPM_TT_M,Precipitación total mensual,Mensual,2012-09-01,100.0,50,,900,108.878716,chirps-v2.0.2012.09.tif
491233,28020590,LETICIA [28020590],10.15238889,-73.22172222,140,Pluviométrica,INSTITUTO DE HIDROLOGIA METEOROLOGIA Y ESTUDIOS AMBIENTALES,Area Operativa 05 - Magdalena-Cesar-Guajira,Cesar,San Diego,1979-01-15,,PRECIPITACION,PTPM_TT_M,Precipitación total mensual,Mensual,2012-09-01,106.0,50,,900,110.297585,chirps-v2.0.2012.09.tif
491724,28010370,PARIS DE FRANCIA [28010370],10.30708333,-73.32544444,180,Pluviométrica,INSTITUTO DE HIDROLOGIA METEOROLOGIA Y ESTUDIOS AMBIENTALES,Area Operativa 05 - Magdalena-Cesar-Guajira,Cesar,Valledupar,1971-11-15,,PRECIPITACION,PTPM_TT_M,Precipitación total mensual,Mensual,2012-09-01,97.0,50,,900,114.865036,chirps-v2.0.2012.09.tif
492755,28025020,RINCON EL [28025020],10.27138889,-73.13138889,350,Climática Ordinaria,INSTITUTO DE HIDROLOGIA METEOROLOGIA Y ESTUDIOS AMBIENTALES,Area Operativa 05 - Magdalena-Cesar-Guajira,Cesar,San Diego,1964-02-15,,PRECIPITACION,PTPM_TT_M,Precipitación total mensual,Mensual,2012-09-01,141.7,50,,900,117.82581,chirps-v2.0.2012.09.tif
493304,28020410,SAN BENITO [28020410],10.18416667,-73.31702778,150,Pluviométrica,INSTITUTO DE HIDROLOGIA METEOROLOGIA Y ESTUDIOS AMBIENTALES,Area Operativa 05 - Magdalena-Cesar-Guajira,Cesar,San Diego,1972-09-15,,PRECIPITACION,PTPM_TT_M,Precipitación total mensual,Mensual,2012-09-01,145.0,50,,900,130.26279,chirps-v2.0.2012.09.tif
493909,28010070,VILLA MARLENE [28010070],10.1855,-73.46711111,120,Pluviométrica,INSTITUTO DE HIDROLOGIA METEOROLOGIA Y ESTUDIOS AMBIENTALES,Area Operativa 05 - Magdalena-Cesar-Guajira,Cesar,Valledupar,1987-01-15,,PRECIPITACION,PTPM_TT_M,Precipitación total mensual,Mensual,2012-09-01,189.0,50,,900,125.26109,chirps-v2.0.2012.09.tif
494549,28035010,VILLA ROSA [28035010],10.19066667,-73.54738889,70,Climática Ordinaria,INSTITUTO DE HIDROLOGIA METEOROLOGIA Y ESTUDIOS AMBIENTALES,Area Operativa 05 - Magdalena-Cesar-Guajira,Cesar,Valledupar,1968-03-15,,PRECIPITACION,PTPM_TT_M,Precipitación total mensual,Mensual,2012-09-01,90.9,50,,900,123.68023,chirps-v2.0.2012.09.tif
495233,28010360,ATANQUEZ [28010360],10.69733333,-73.35305556,800,Pluviométrica,INSTITUTO DE HIDROLOGIA METEOROLOGIA Y ESTUDIOS AMBIENTALES,Area Operativa 05 - Magdalena-Cesar-Guajira,Cesar,Valledupar,1959-04-15,,PRECIPITACION,PTPM_TT_M,Precipitación total mensual,Mensual,2012-09-01,660.0,50,,900,222.55415,chirps-v2.0.2012.09.tif
495857,28035020,CALLAO EL [28035020],10.36305556,-73.31944444,110,Climática Ordinaria,INSTITUTO DE HIDROLOGIA METEOROLOGIA Y ESTUDIOS AMBIENTALES,Area Operativa 05 - Magdalena-Cesar-Guajira,Cesar,Valledupar,1968-03-15,,PRECIPITACION,PTPM_TT_M,Precipitación total mensual,Mensual,2012-09-01,114.1,50,,900,122.15833,chirps-v2.0.2012.09.tif
496608,28010020,DESCANSO EL [28010020],10.48011111,-73.23719444,160,Pluviométrica,INSTITUTO DE HIDROLOGIA METEOROLOGIA Y ESTUDIOS AMBIENTALES,Area Operativa 05 - Magdalena-Cesar-Guajira,Cesar,Valledupar,1986-04-15,2019-02-07 11:41:00,PRECIPITACION,PTPM_TT_M,Precipitación total mensual,Mensual,2012-09-01,56.0,50,,900,93.661575,chirps-v2.0.2012.09.tif
497141,28010040,MANAURE [28010040],10.39138889,-73.02527778,740,Pluviométrica,INSTITUTO DE HIDROLOGIA METEOROLOGIA Y ESTUDIOS AMBIENTALES,Area Operativa 05 - Magdalena-Cesar-Guajira,Cesar,Manaure Balcón Del Cesar,1975-09-15,,PRECIPITACION,PTPM_TT_M,Precipitación total mensual,Mensual,2012-09-01,82.9,50,,900,147.512,chirps-v2.0.2012.09.tif
497850,28040010,PUEBLO BELLO [28040010],10.41463889,-73.58502778,10,Pluviométrica,INSTITUTO DE HIDROLOGIA METEOROLOGIA Y ESTUDIOS AMBIENTALES,Area Operativa 05 - Magdalena-Cesar-Guajira,Cesar,Pueblo Bello,1963-01-15,,PRECIPITACION,PTPM_TT_M,Precipitación total mensual,Mensual,2012-09-01,107.0,50,,900,209.3365,chirps-v2.0.2012.09.tif
498307,28030220,SAN ANGEL [28030220],10.34705556,-73.44413889,244,Pluviométrica,INSTITUTO DE HIDROLOGIA METEOROLOGIA Y ESTUDIOS AMBIENTALES,Area Operativa 05 - Magdalena-Cesar-Guajira,Cesar,Valledupar,1983-06-15,,PRECIPITACION,PTPM_TT_M,Precipitación total mensual,Mensual,2012-09-01,79.0,50,,900,130.82068,chirps-v2.0.2012.09.tif
499063,29060090,SAN SEBASTIAN DE [29060090],10.56330556,-73.60380556,20,Pluviométrica,INSTITUTO DE HIDROLOGIA METEOROLOGIA Y ESTUDIOS AMBIENTALES,Area Operativa 05 - Magdalena-Cesar-Guajira,Cesar,Pueblo Bello,1968-05-15,,PRECIPITACION,PTPM_TT_M,Precipitación total mensual,Mensual,2012-09-01,150.0,50,,900,306.04837,chirps-v2.0.2012.09.tif
500155,28010090,PATILLAL [28010090],10.70386111,-73.21161111,450,Pluviométrica,INSTITUTO DE HIDROLOGIA METEOROLOGIA Y ESTUDIOS AMBIENTALES,Area Operativa 05 - Magdalena-Cesar-Guajira,Cesar,Valledupar,1962-12-15,,PRECIPITACION,PTPM_TT_M,Precipitación total mensual,Mensual,2012-09-01,110.0,50,,900,173.74661,chirps-v2.0.2012.09.tif
501619,15060080,CANAVERALES [15060080],10.75777778,-72.84522222,230,Pluviométrica,INSTITUTO DE HIDROLOGIA METEOROLOGIA Y ESTUDIOS AMBIENTALES,Area Operativa 05 - Magdalena-Cesar-Guajira,La Guajira,San Juan Del Cesar,1963-08-15,,PRECIPITACION,PTPM_TT_M,Precipitación total mensual,Mensual,2012-09-01,83.0,50,,900,94.33544,chirps-v2.0.2012.09.tif
502172,15060150,CONEJO EL [15060150],10.77794444,-72.79819444,350,Pluviométrica,INSTITUTO DE HIDROLOGIA METEOROLOGIA Y ESTUDIOS AMBIENTALES,Area Operativa 05 - Magdalena-Cesar-Guajira,La Guajira,Fonseca,1975-10-15,,PRECIPITACION,PTPM_TT_M,Precipitación total mensual,Mensual,2012-09-01,56.0,50,,900,97.51659,chirps-v2.0.2012.09.tif
502760,28010200,HATICO D LOS INDIO [28010200],10.86022222,-73.11416667,594,Pluviométrica,INSTITUTO DE HIDROLOGIA METEOROLOGIA Y ESTUDIOS AMBIENTALES,Area Operativa 05 - Magdalena-Cesar-Guajira,La Guajira,San Juan Del Cesar,1970-01-15,,PRECIPITACION,PTPM_TT_M,Precipitación total mensual,Mensual,2012-09-01,49.0,50,,900,142.96579,chirps-v2.0.2012.09.tif
503348,15060070,JUGUETE EL [15060070],10.786,-72.76836111,390,Pluviométrica,INSTITUTO DE HIDROLOGIA METEOROLOGIA Y ESTUDIOS AMBIENTALES,Area Operativa 05 - Magdalena-Cesar-Guajira,La Guajira,Fonseca,1971-05-15,2014-08-28 00:00:00,PRECIPITACION,PTPM_TT_M,Precipitación total mensual,Mensual,2012-09-01,100.0,50,,900,97.51659,chirps-v2.0.2012.09.tif
504449,15060050,SABANAS DE MANUELA [15060050],10.953,-73.04797222,420,Pluviométrica,INSTITUTO DE HIDROLOGIA METEOROLOGIA Y ESTUDIOS AMBIENTALES,Area Operativa 05 - Magdalena-Cesar-Guajira,La Guajira,Distracción,1963-08-15,,PRECIPITACION,PTPM_TT_M,Precipitación total mensual,Mensual,2012-09-01,96.0,50,,900,148.09927,chirps-v2.0.2012.09.tif
505002,28015070,URUMITA [28015070],10.56638889,-73.01638889,255,Climática Ordinaria,INSTITUTO DE HIDROLOGIA METEOROLOGIA Y ESTUDIOS AMBIENTALES,Area Operativa 05 - Magdalena-Cesar-Guajira,La Guajira,Urumita,1975-08-15,,PRECIPITACION,PTPM_TT_M,Precipitación total mensual,Mensual,2012-09-01,152.6,50,,900,113.29208,chirps-v2.0.2012.09.tif
505576,28010340,VILLANUEVA [28010340],10.61583333,-72.98194444,340,Pluviométrica,INSTITUTO DE HIDROLOGIA METEOROLOGIA Y ESTUDIOS AMBIENTALES,Area Operativa 05 - Magdalena-Cesar-Guajira,La Guajira,Villanueva,1970-08-15,,PRECIPITACION,PTPM_TT_M,Precipitación total mensual,Mensual,2012-09-01,168.0,50,,900,112.63554,chirps-v2.0.2012.09.tif
506252,25025090,AEROPUERTO LAS FLORES [25025090],9.046333333,-73.97083333,34,Climática Principal,INSTITUTO DE HIDROLOGIA METEOROLOGIA Y ESTUDIOS AMBIENTALES,Area Operativa 05 - Magdalena-Cesar-Guajira,Magdalena,El Banco,1952-02-15,,PRECIPITACION,PTPM_TT_M,Precipitación total mensual,Mensual,2012-09-01,154.2,50,,900,218.7323,chirps-v2.0.2012.09.tif
506821,28040320,BRILLANTE EL [28040320],9.70275,-73.95913889,135,Pluviométrica,INSTITUTO DE HIDROLOGIA METEOROLOGIA Y ESTUDIOS AMBIENTALES,Area Operativa 05 - Magdalena-Cesar-Guajira,Magdalena,Santa Ana,1972-07-15,,PRECIPITACION,PTPM_TT_M,Precipitación total mensual,Mensual,2012-09-01,136.0,50,,900,133.3048,chirps-v2.0.2012.09.tif
507285,25021620,IRAN [25021620],9.683777778,-74.32216667,80,Pluviométrica,INSTITUTO DE HIDROLOGIA METEOROLOGIA Y ESTUDIOS AMBIENTALES,Area Operativa 05 - Magdalena-Cesar-Guajira,Magdalena,Nueva Granada,1982-06-15,,PRECIPITACION,PTPM_TT_M,Precipitación total mensual,Mensual,2012-09-01,182.0,50,,900,109.542435,chirps-v2.0.2012.09.tif
507853,25021040,MENCHIQUEJO [25021040],9.188055556,-74.04422222,25,Pluviométrica,INSTITUTO DE HIDROLOGIA METEOROLOGIA Y ESTUDIOS AMBIENTALES,Area Operativa 05 - Magdalena-Cesar-Guajira,Magdalena,El Banco,1974-09-15,,PRECIPITACION,PTPM_TT_M,Precipitación total mensual,Mensual,2012-09-01,161.0,50,,900,233.00136,chirps-v2.0.2012.09.tif
508386,25021200,NEGRITOS LOS [25021200],9.026666667,-74.07944444,26,Pluviométrica,INSTITUTO DE HIDROLOGIA METEOROLOGIA Y ESTUDIOS AMBIENTALES,Area Operativa 02 - Atlántico-Bolivar-Sucre,Magdalena,El Banco,1976-07-15,,PRECIPITACION,PTPM_TT_M,Precipitación total mensual,Mensual,2012-09-01,290.0,50,,900,232.18774,chirps-v2.0.2012.09.tif
508909,25021500,PUEBLITO EL [25021500],9.581166667,-74.35225,35,Pluviométrica,INSTITUTO DE HIDROLOGIA METEOROLOGIA Y ESTUDIOS AMBIENTALES,Area Operativa 05 - Magdalena-Cesar-Guajira,Magdalena,Santa Ana,1976-10-15,,PRECIPITACION,PTPM_TT_M,Precipitación total mensual,Mensual,2012-09-01,106.0,50,,900,101.12814,chirps-v2.0.2012.09.tif
509387,25021380,SAN ROQUE ALERTAS [25021380],9.07,-74.15,24,Pluviométrica,INSTITUTO DE HIDROLOGIA METEOROLOGIA Y ESTUDIOS AMBIENTALES,Area Operativa 02 - Atlántico-Bolivar-Sucre,Magdalena,El Banco,1980-05-15,,PRECIPITACION,PTPM_TT_M,Precipitación total mensual,Mensual,2012-09-01,187.0,50,,900,200.19333,chirps-v2.0.2012.09.tif
509941,25020900,SAN SEBASTIAN [25020900],9.233888889,-74.35583333,65,Pluviométrica,INSTITUTO DE HIDROLOGIA METEOROLOGIA Y ESTUDIOS AMBIENTALES,Area Operativa 02 - Atlántico-Bolivar-Sucre,Magdalena,San Sebastián De Buenavista,1974-01-15,,PRECIPITACION,PTPM_TT_M,Precipitación total mensual,Mensual,2012-09-01,114.0,50,,900,122.20743,chirps-v2.0.2012.09.tif
510454,25025300,SEIS EL [25025300],9.683666667,-74.32227778,50,Climática Ordinaria,INSTITUTO DE HIDROLOGIA METEOROLOGIA Y ESTUDIOS AMBIENTALES,Area Operativa 05 - Magdalena-Cesar-Guajira,Magdalena,San Sebastián De Buenavista,1984-11-15,,PRECIPITACION,PTPM_TT_M,Precipitación total mensual,Mensual,2012-09-01,209.3,50,,900,109.542435,chirps-v2.0.2012.09.tif
511019,28040300,VILLA CONCEPCION [28040300],9.706305556,-73.85944444,120,Pluviométrica,INSTITUTO DE HIDROLOGIA METEOROLOGIA Y ESTUDIOS AMBIENTALES,Area Operativa 05 - Magdalena-Cesar-Guajira,Magdalena,Ariguaní (El Dificil),1972-07-15,,PRECIPITACION,PTPM_TT_M,Precipitación total mensual,Mensual,2012-09-01,118.0,50,,900,141.6897,chirps-v2.0.2012.09.tif
511518,25021540,AGUADAS LAS ALERTA [25021540],8.949997222,-74.049997222,30,Pluviométrica,INSTITUTO DE HIDROLOGIA METEOROLOGIA Y ESTUDIOS AMBIENTALES,Area Operativa 02 - Atlántico-Bolivar-Sucre,Bolivar,San Martín De Loba,1978-11-15,,PRECIPITACION,PTPM_TT_M,Precipitación total mensual,Mensual,2012-09-01,265.0,50,,900,233.69162,chirps-v2.0.2012.09.tif
512071,25020880,BARRANCO DE LOBA [25020880],8.946666667,-74.11055556,25,Pluviométrica,INSTITUTO DE HIDROLOGIA METEOROLOGIA Y ESTUDIOS AMBIENTALES,Area Operativa 02 - Atlántico-Bolivar-Sucre,Bolivar,Barranco De Loba,1974-09-15,,PRECIPITACION,PTPM_TT_M,Precipitación total mensual,Mensual,2012-09-01,288.0,50,,900,257.96103,chirps-v2.0.2012.09.tif
512613,25020890,CHILLOA [25020890],9.119388889,-74.22194444,20,Pluviométrica,INSTITUTO DE HIDROLOGIA METEOROLOGIA Y ESTUDIOS AMBIENTALES,Area Operativa 02 - Atlántico-Bolivar-Sucre,Bolivar,Margarita,1974-09-15,,PRECIPITACION,PTPM_TT_M,Precipitación total mensual,Mensual,2012-09-01,209.0,50,,900,205.84576,chirps-v2.0.2012.09.tif
513130,25021320,SUDAN EL [25021320],8.643333333,-74.21222222,23,Pluviométrica,INSTITUTO DE HIDROLOGIA METEOROLOGIA Y ESTUDIOS AMBIENTALES,Area Operativa 02 - Atlántico-Bolivar-Sucre,Bolivar,Tiquisio (Puerto Rico),1976-10-15,,PRECIPITACION,PTPM_TT_M,Precipitación total mensual,Mensual,2012-09-01,237.0,50,,900,264.1883,chirps-v2.0.2012.09.tif
514283,25020870,PLAYITAS [25020870],8.822777778,-73.96583333,40,Pluviométrica,INSTITUTO DE HIDROLOGIA METEOROLOGIA Y ESTUDIOS AMBIENTALES,Area Operativa 02 - Atlántico-Bolivar-Sucre,Bolivar,San Martín De Loba,1974-09-15,,PRECIPITACION,PTPM_TT_M,Precipitación total mensual,Mensual,2012-09-01,220.0,50,,900,237.78027,chirps-v2.0.2012.09.tif
514826,25021090,SANTA ROSA [25021090],9.093333333,-74.31388889,40,Pluviométrica,INSTITUTO DE HIDROLOGIA METEOROLOGIA Y ESTUDIOS AMBIENTALES,Area Operativa 02 - Atlántico-Bolivar-Sucre,Bolivar,San Fernando,1974-10-15,,PRECIPITACION,PTPM_TT_M,Precipitación total mensual,Mensual,2012-09-01,150.0,50,,900,236.94199,chirps-v2.0.2012.09.tif
