,CodigoEstacion,NombreEstacion,Latitud,Longitud,Altitud,Categoria,Entidad,AreaOperativa,Departamento,Municipio,FechaInstalacion,FechaSuspension,IdParametro,Etiqueta,DescripcionSerie,Frecuencia,Fecha,Valor,Grado,Calificador,NivelAprobacion,SatValue,SatDesc
305,25025330,COLEGIO AGROPECUARIO PAILITAS  - AUT [25025330],8.954222222,-73.63008333,50,Climática Principal,INSTITUTO DE HIDROLOGIA METEOROLOGIA Y ESTUDIOS AMBIENTALES,Area Operativa 05 - Magdalena-Cesar-Guajira,Cesar,Pailitas,1987-09-15,,PRECIPITACION,PTPM_TT_M,Precipitación total mensual,Mensual,2019-03-01,200.0,4,,900,57.201157,chirps-v2.0.2019.03.tif
603,23210020,GLORIA LA [23210020],8.630555556,-73.80416667,40,Pluviométrica,INSTITUTO DE HIDROLOGIA METEOROLOGIA Y ESTUDIOS AMBIENTALES,Area Operativa 08 - Santanderes-Arauca,Cesar,La Gloria,1995-05-15,,PRECIPITACION,PTPM_TT_M,Precipitación total mensual,Mensual,2019-03-01,45.0,50,,900,40.902218,chirps-v2.0.2019.03.tif
1278,23215050,MATA LA [23215050],8.614444444,-73.63638889,163,Pluviométrica,INSTITUTO DE HIDROLOGIA METEOROLOGIA Y ESTUDIOS AMBIENTALES,Area Operativa 08 - Santanderes-Arauca,Cesar,La Gloria,1983-09-15,,PRECIPITACION,PTPM_TT_M,Precipitación total mensual,Mensual,2019-03-01,100.9,50,ESTIMADO,900,36.96701,chirps-v2.0.2019.03.tif
1829,25020670,RAYA LA [25020670],9.050277778,-73.55972222,500,Pluviométrica,INSTITUTO DE HIDROLOGIA METEOROLOGIA Y ESTUDIOS AMBIENTALES,Area Operativa 05 - Magdalena-Cesar-Guajira,Cesar,Pailitas,1972-09-15,,PRECIPITACION,PTPM_TT_M,Precipitación total mensual,Mensual,2019-03-01,23.0,50,,900,64.285065,chirps-v2.0.2019.03.tif
2271,25021640,SANTA ISABEL [25021640],8.71275,-73.70255556,40,Pluviométrica,INSTITUTO DE HIDROLOGIA METEOROLOGIA Y ESTUDIOS AMBIENTALES,Area Operativa 05 - Magdalena-Cesar-Guajira,Cesar,Pelaya,1984-11-15,,PRECIPITACION,PTPM_TT_M,Precipitación total mensual,Mensual,2019-03-01,15.2,50,,900,39.872326,chirps-v2.0.2019.03.tif
3373,25020090,TAMALAMEQUE [25020090],8.860388889,-73.81544444,20,Pluviométrica,INSTITUTO DE HIDROLOGIA METEOROLOGIA Y ESTUDIOS AMBIENTALES,Area Operativa 05 - Magdalena-Cesar-Guajira,Cesar,Tamalameque,1960-02-15,,PRECIPITACION,PTPM_TT_M,Precipitación total mensual,Mensual,2019-03-01,128.0,50,,900,48.56807,chirps-v2.0.2019.03.tif
3903,25020650,TERROR EL HACIENDA [25020650],8.938777778,-73.56022222,250,Pluviométrica,INSTITUTO DE HIDROLOGIA METEOROLOGIA Y ESTUDIOS AMBIENTALES,Area Operativa 05 - Magdalena-Cesar-Guajira,Cesar,Chimichagua,1972-09-15,,PRECIPITACION,PTPM_TT_M,Precipitación total mensual,Mensual,2019-03-01,17.0,50,,900,57.07623,chirps-v2.0.2019.03.tif
4485,25020660,ZAPATOZA [25020660],9.00975,-73.75402778,90,Pluviométrica,INSTITUTO DE HIDROLOGIA METEOROLOGIA Y ESTUDIOS AMBIENTALES,Area Operativa 05 - Magdalena-Cesar-Guajira,Cesar,Curumaní,1972-09-15,,PRECIPITACION,PTPM_TT_M,Precipitación total mensual,Mensual,2019-03-01,60.0,50,,900,58.035423,chirps-v2.0.2019.03.tif
5155,28040150,BELLAVISTA [28040150],10.30805556,-74.03922222,140,Pluviométrica,INSTITUTO DE HIDROLOGIA METEOROLOGIA Y ESTUDIOS AMBIENTALES,Area Operativa 05 - Magdalena-Cesar-Guajira,Magdalena,Algarrobo,1963-02-15,,PRECIPITACION,PTPM_TT_M,Precipitación total mensual,Mensual,2019-03-01,60.3,50,,900,19.219982,chirps-v2.0.2019.03.tif
5671,28040360,CABANA LA HACIENDA [28040360],9.861,-74.07672222,100,Pluviométrica,INSTITUTO DE HIDROLOGIA METEOROLOGIA Y ESTUDIOS AMBIENTALES,Area Operativa 05 - Magdalena-Cesar-Guajira,Magdalena,Ariguaní (El Dificil),1979-01-15,,PRECIPITACION,PTPM_TT_M,Precipitación total mensual,Mensual,2019-03-01,22.0,50,,900,48.985275,chirps-v2.0.2019.03.tif
6332,29060150,DESTINO EL [29060150],10.57366667,-74.22411111,20,Pluviométrica,INSTITUTO DE HIDROLOGIA METEOROLOGIA Y ESTUDIOS AMBIENTALES,Area Operativa 05 - Magdalena-Cesar-Guajira,Magdalena,El Retén,1967-01-15,,PRECIPITACION,PTPM_TT_M,Precipitación total mensual,Mensual,2019-03-01,0.0,50,,900,4.5495677,chirps-v2.0.2019.03.tif
6758,29060560,DONA MARIA [29060560],10.38444444,-74.17794444,50,Pluviométrica,INSTITUTO DE HIDROLOGIA METEOROLOGIA Y ESTUDIOS AMBIENTALES,Area Operativa 05 - Magdalena-Cesar-Guajira,Magdalena,Fundación,1984-11-15,,PRECIPITACION,PTPM_TT_M,Precipitación total mensual,Mensual,2019-03-01,15.0,50,,900,16.868927,chirps-v2.0.2019.03.tif
7534,29060040,FUNDACION [29060040],10.52436111,-74.18222222,40,Pluviométrica,INSTITUTO DE HIDROLOGIA METEOROLOGIA Y ESTUDIOS AMBIENTALES,Area Operativa 05 - Magdalena-Cesar-Guajira,Magdalena,Fundación,1958-03-15,,PRECIPITACION,PTPM_TT_M,Precipitación total mensual,Mensual,2019-03-01,11.0,50,,900,8.198994,chirps-v2.0.2019.03.tif
8079,29060200,MARIA LA [29060200],10.54066667,-74.18697222,30,Pluviométrica,INSTITUTO DE HIDROLOGIA METEOROLOGIA Y ESTUDIOS AMBIENTALES,Area Operativa 05 - Magdalena-Cesar-Guajira,Magdalena,Aracataca,1974-11-15,,PRECIPITACION,PTPM_TT_M,Precipitación total mensual,Mensual,2019-03-01,0.0,50,,900,8.198994,chirps-v2.0.2019.03.tif
8777,28040100,MONTERRUBIO [28040100],10.23369444,-74.27325,100,Pluviométrica,INSTITUTO DE HIDROLOGIA METEOROLOGIA Y ESTUDIOS AMBIENTALES,Area Operativa 05 - Magdalena-Cesar-Guajira,Magdalena,Pivijai,1963-01-15,,PRECIPITACION,PTPM_TT_M,Precipitación total mensual,Mensual,2019-03-01,22.0,50,,900,34.910408,chirps-v2.0.2019.03.tif
9238,25021630,NUEVA GRANADA [25021630],9.80175,-74.38855556,110,Pluviométrica,INSTITUTO DE HIDROLOGIA METEOROLOGIA Y ESTUDIOS AMBIENTALES,Area Operativa 05 - Magdalena-Cesar-Guajira,Magdalena,Nueva Granada,1982-06-15,,PRECIPITACION,PTPM_TT_M,Precipitación total mensual,Mensual,2019-03-01,56.0,50,,900,43.798134,chirps-v2.0.2019.03.tif
9910,28040140,SAN ANGEL [28040140],10.03305556,-74.21261111,140,Pluviométrica,INSTITUTO DE HIDROLOGIA METEOROLOGIA Y ESTUDIOS AMBIENTALES,Area Operativa 05 - Magdalena-Cesar-Guajira,Magdalena,Sabanas De San Ángel,1963-01-15,,PRECIPITACION,PTPM_TT_M,Precipitación total mensual,Mensual,2019-03-01,60.0,50,,900,51.931404,chirps-v2.0.2019.03.tif
10471,29060100,SANTA ROSA DE LIMA [29060100],10.40275,-74.108,75,Pluviométrica,INSTITUTO DE HIDROLOGIA METEOROLOGIA Y ESTUDIOS AMBIENTALES,Area Operativa 05 - Magdalena-Cesar-Guajira,Magdalena,Fundación,1975-08-15,,PRECIPITACION,PTPM_TT_M,Precipitación total mensual,Mensual,2019-03-01,17.0,50,,900,14.845296,chirps-v2.0.2019.03.tif
11548,29060030,BONGO EL [29060030],10.64877778,-74.3755,20,Pluviométrica,INSTITUTO DE HIDROLOGIA METEOROLOGIA Y ESTUDIOS AMBIENTALES,Area Operativa 05 - Magdalena-Cesar-Guajira,Magdalena,El Retén,1975-09-15,,PRECIPITACION,PTPM_TT_M,Precipitación total mensual,Mensual,2019-03-01,0.0,50,,900,5.7194996,chirps-v2.0.2019.03.tif
12208,29060140,CARMEN EL [29060140],10.6755,-74.20644444,25,Pluviométrica,INSTITUTO DE HIDROLOGIA METEOROLOGIA Y ESTUDIOS AMBIENTALES,Area Operativa 05 - Magdalena-Cesar-Guajira,Magdalena,Zona Bananera,1967-03-15,,PRECIPITACION,PTPM_TT_M,Precipitación total mensual,Mensual,2019-03-01,0.0,50,,900,5.2173767,chirps-v2.0.2019.03.tif
12940,29060060,CENIZO EL [29060060],10.65161111,-74.07322222,450,Pluviométrica,INSTITUTO DE HIDROLOGIA METEOROLOGIA Y ESTUDIOS AMBIENTALES,Area Operativa 05 - Magdalena-Cesar-Guajira,Magdalena,Aracataca,1959-03-15,,PRECIPITACION,PTPM_TT_M,Precipitación total mensual,Mensual,2019-03-01,0.0,50,,900,8.25425,chirps-v2.0.2019.03.tif
14101,29060170,GAVILAN [29060170],10.68044444,-74.33069444,20,Pluviométrica,INSTITUTO DE HIDROLOGIA METEOROLOGIA Y ESTUDIOS AMBIENTALES,Area Operativa 05 - Magdalena-Cesar-Guajira,Magdalena,El Retén,1967-03-15,,PRECIPITACION,PTPM_TT_M,Precipitación total mensual,Mensual,2019-03-01,0.0,50,,900,5.883827,chirps-v2.0.2019.03.tif
14742,29065020,PADELMA [29065020],10.72111111,-74.19972222,20,Climática Ordinaria,INSTITUTO DE HIDROLOGIA METEOROLOGIA Y ESTUDIOS AMBIENTALES,Area Operativa 05 - Magdalena-Cesar-Guajira,Magdalena,Zona Bananera,1967-08-15,,PRECIPITACION,PTPM_TT_M,Precipitación total mensual,Mensual,2019-03-01,0.0,50,,900,6.2794847,chirps-v2.0.2019.03.tif
15401,29060270,PALO ALTO [29060270],10.7225,-74.27191667,25,Pluviométrica,INSTITUTO DE HIDROLOGIA METEOROLOGIA Y ESTUDIOS AMBIENTALES,Area Operativa 05 - Magdalena-Cesar-Guajira,Magdalena,Puebloviejo,1967-01-15,,PRECIPITACION,PTPM_TT_M,Precipitación total mensual,Mensual,2019-03-01,0.0,50,,900,6.5317283,chirps-v2.0.2019.03.tif
16863,29060180,ESPERANZA LA [29060180],10.74252778,-74.30627778,25,Pluviométrica,INSTITUTO DE HIDROLOGIA METEOROLOGIA Y ESTUDIOS AMBIENTALES,Area Operativa 05 - Magdalena-Cesar-Guajira,Magdalena,Puebloviejo,1975-10-15,,PRECIPITACION,PTPM_TT_M,Precipitación total mensual,Mensual,2019-03-01,0.0,50,,900,6.740202,chirps-v2.0.2019.03.tif
17394,29060340,PALMOR EL [29060340],10.77344444,-74.02563889,1200,Pluviométrica,INSTITUTO DE HIDROLOGIA METEOROLOGIA Y ESTUDIOS AMBIENTALES,Area Operativa 05 - Magdalena-Cesar-Guajira,Magdalena,Ciénaga,1975-09-15,,PRECIPITACION,PTPM_TT_M,Precipitación total mensual,Mensual,2019-03-01,20.0,50,,900,15.029563,chirps-v2.0.2019.03.tif
19188,29060250,PROYECTOS LOS [29060250],10.73672222,-74.23708333,20,Pluviométrica,INSTITUTO DE HIDROLOGIA METEOROLOGIA Y ESTUDIOS AMBIENTALES,Area Operativa 05 - Magdalena-Cesar-Guajira,Magdalena,Zona Bananera,1967-01-15,,PRECIPITACION,PTPM_TT_M,Precipitación total mensual,Mensual,2019-03-01,0.0,50,,900,4.7949314,chirps-v2.0.2019.03.tif
20575,29060070,SAN PABLO [29060070],10.80819444,-74.02680556,800,Pluviométrica,INSTITUTO DE HIDROLOGIA METEOROLOGIA Y ESTUDIOS AMBIENTALES,Area Operativa 05 - Magdalena-Cesar-Guajira,Magdalena,Ciénaga,1960-08-15,,PRECIPITACION,PTPM_TT_M,Precipitación total mensual,Mensual,2019-03-01,5.0,50,,900,14.7795105,chirps-v2.0.2019.03.tif
21596,29060160,ENANO EL [29060160],10.90219444,-74.18947222,25,Pluviométrica,INSTITUTO DE HIDROLOGIA METEOROLOGIA Y ESTUDIOS AMBIENTALES,Area Operativa 05 - Magdalena-Cesar-Guajira,Magdalena,Zona Bananera,1974-11-15,,PRECIPITACION,PTPM_TT_M,Precipitación total mensual,Mensual,2019-03-01,0.0,50,,900,5.149877,chirps-v2.0.2019.03.tif
22251,29060210,PALMA LA [29060210],10.96683333,-74.20469444,23,Pluviométrica,INSTITUTO DE HIDROLOGIA METEOROLOGIA Y ESTUDIOS AMBIENTALES,Area Operativa 05 - Magdalena-Cesar-Guajira,Magdalena,Ciénaga,1967-03-15,,PRECIPITACION,PTPM_TT_M,Precipitación total mensual,Mensual,2019-03-01,7.5,50,,900,2.5394506,chirps-v2.0.2019.03.tif
22911,29060280,SAN ISIDRO [29060280],10.90083333,-74.22061111,25,Pluviométrica,INSTITUTO DE HIDROLOGIA METEOROLOGIA Y ESTUDIOS AMBIENTALES,Area Operativa 05 - Magdalena-Cesar-Guajira,Magdalena,Zona Bananera,1967-01-15,,PRECIPITACION,PTPM_TT_M,Precipitación total mensual,Mensual,2019-03-01,0.0,50,,900,3.1364758,chirps-v2.0.2019.03.tif
23429,29060310,SEVILLANO [29060310],10.93305556,-74.25244444,5,Pluviométrica,INSTITUTO DE HIDROLOGIA METEOROLOGIA Y ESTUDIOS AMBIENTALES,Area Operativa 05 - Magdalena-Cesar-Guajira,Magdalena,Ciénaga,1979-09-15,,PRECIPITACION,PTPM_TT_M,Precipitación total mensual,Mensual,2019-03-01,0.0,50,,900,2.7750323,chirps-v2.0.2019.03.tif
24107,29060120,TASAJERA [29060120],10.97622222,-74.36175,2,Pluviométrica,INSTITUTO DE HIDROLOGIA METEOROLOGIA Y ESTUDIOS AMBIENTALES,Area Operativa 05 - Magdalena-Cesar-Guajira,Magdalena,Puebloviejo,1965-08-15,,PRECIPITACION,PTPM_TT_M,Precipitación total mensual,Mensual,2019-03-01,0.0,50,,900,2.4215372,chirps-v2.0.2019.03.tif
25176,16060010,CNO LA RAYA [16060010],8.834722222,-72.79166667,75,Pluviométrica,INSTITUTO DE HIDROLOGIA METEOROLOGIA Y ESTUDIOS AMBIENTALES,Area Operativa 08 - Santanderes-Arauca,Norte De Santander,Tibú,1973-04-15,,PRECIPITACION,PTPM_TT_M,Precipitación total mensual,Mensual,2019-03-01,279.0,50,,900,93.989296,chirps-v2.0.2019.03.tif
26109,16070040,ORU [16070040],8.641111111,-72.90944444,150,Pluviométrica,INSTITUTO DE HIDROLOGIA METEOROLOGIA Y ESTUDIOS AMBIENTALES,Area Operativa 08 - Santanderes-Arauca,Norte De Santander,Tibú,1973-04-15,,PRECIPITACION,PTPM_TT_M,Precipitación total mensual,Mensual,2019-03-01,393.0,50,,900,80.06748,chirps-v2.0.2019.03.tif
391056,25020220,ASTREA [25020220],9.492944444,-73.97288889,50,Pluviométrica,INSTITUTO DE HIDROLOGIA METEOROLOGIA Y ESTUDIOS AMBIENTALES,Area Operativa 05 - Magdalena-Cesar-Guajira,Cesar,Astrea,1962-04-15,,PRECIPITACION,PTPM_TT_M,Precipitación total mensual,Mensual,2019-03-01,48.0,50,,900,36.05437,chirps-v2.0.2019.03.tif
391762,25020240,CANAL EL [25020240],9.410472222,-73.89041667,70,Pluviométrica,INSTITUTO DE HIDROLOGIA METEOROLOGIA Y ESTUDIOS AMBIENTALES,Area Operativa 05 - Magdalena-Cesar-Guajira,Cesar,Chimichagua,1963-03-15,,PRECIPITACION,PTPM_TT_M,Precipitación total mensual,Mensual,2019-03-01,70.0,50,,900,41.42003,chirps-v2.0.2019.03.tif
392355,25021240,CHIMICHAGUA [25021240],9.260083333,-73.80986111,138,Pluviométrica,INSTITUTO DE HIDROLOGIA METEOROLOGIA Y ESTUDIOS AMBIENTALES,Area Operativa 05 - Magdalena-Cesar-Guajira,Cesar,Chimichagua,1972-07-15,,PRECIPITACION,PTPM_TT_M,Precipitación total mensual,Mensual,2019-03-01,104.0,50,,900,54.851086,chirps-v2.0.2019.03.tif
392889,25025250,CHIRIGUANA [25025250],9.361027778,-73.59338889,40,Climática Ordinaria,INSTITUTO DE HIDROLOGIA METEOROLOGIA Y ESTUDIOS AMBIENTALES,Area Operativa 05 - Magdalena-Cesar-Guajira,Cesar,Chiriguaná,1973-06-15,,PRECIPITACION,PTPM_TT_M,Precipitación total mensual,Mensual,2019-03-01,192.0,50,,900,65.413475,chirps-v2.0.2019.03.tif
393781,25020250,CURUMANI [25020250],9.197194444,-73.54194444,100,Pluviométrica,INSTITUTO DE HIDROLOGIA METEOROLOGIA Y ESTUDIOS AMBIENTALES,Area Operativa 05 - Magdalena-Cesar-Guajira,Cesar,Curumaní,1963-03-15,,PRECIPITACION,PTPM_TT_M,Precipitación total mensual,Mensual,2019-03-01,64.0,50,,900,62.099674,chirps-v2.0.2019.03.tif
394364,25020690,POPONTE [25020690],9.423277778,-73.41094444,500,Pluviométrica,INSTITUTO DE HIDROLOGIA METEOROLOGIA Y ESTUDIOS AMBIENTALES,Area Operativa 05 - Magdalena-Cesar-Guajira,Cesar,Curumaní,1972-09-15,,PRECIPITACION,PTPM_TT_M,Precipitación total mensual,Mensual,2019-03-01,37.0,50,,900,72.8649,chirps-v2.0.2019.03.tif
395570,25020260,RINCONHONDO [25020260],9.397027778,-73.48802778,100,Pluviométrica,INSTITUTO DE HIDROLOGIA METEOROLOGIA Y ESTUDIOS AMBIENTALES,Area Operativa 05 - Magdalena-Cesar-Guajira,Cesar,Chiriguaná,1963-03-15,,PRECIPITACION,PTPM_TT_M,Precipitación total mensual,Mensual,2019-03-01,172.0,50,,900,64.53187,chirps-v2.0.2019.03.tif
478904,28025090,CENTENARIO HACIENDA [28025090],9.85025,-73.26547222,100,Climática Ordinaria,INSTITUTO DE HIDROLOGIA METEOROLOGIA Y ESTUDIOS AMBIENTALES,Area Operativa 05 - Magdalena-Cesar-Guajira,Cesar,Agustín Codazzi,1976-12-15,,PRECIPITACION,PTPM_TT_M,Precipitación total mensual,Mensual,2019-03-01,114.3,50,,900,93.81134,chirps-v2.0.2019.03.tif
479589,25020230,JAGUA LA [25020230],9.562166667,-73.33947222,170,Pluviométrica,INSTITUTO DE HIDROLOGIA METEOROLOGIA Y ESTUDIOS AMBIENTALES,Area Operativa 05 - Magdalena-Cesar-Guajira,Cesar,La Jagua De Ibirico,1963-08-15,,PRECIPITACION,PTPM_TT_M,Precipitación total mensual,Mensual,2019-03-01,82.0,50,,900,102.2519,chirps-v2.0.2019.03.tif
481760,28040350,PASO EL   [28040350],9.656972222,-73.74369444,30,Pluviométrica,INSTITUTO DE HIDROLOGIA METEOROLOGIA Y ESTUDIOS AMBIENTALES,Area Operativa 05 - Magdalena-Cesar-Guajira,Cesar,El Paso,1972-08-15,,PRECIPITACION,PTPM_TT_M,Precipitación total mensual,Mensual,2019-03-01,102.0,50,,900,64.931,chirps-v2.0.2019.03.tif
482358,28020080,PLAYAS LAS HACIENDA [28020080],9.848083333,-73.46219444,60,Pluviométrica,INSTITUTO DE HIDROLOGIA METEOROLOGIA Y ESTUDIOS AMBIENTALES,Area Operativa 05 - Magdalena-Cesar-Guajira,Cesar,Agustín Codazzi,1959-08-15,,PRECIPITACION,PTPM_TT_M,Precipitación total mensual,Mensual,2019-03-01,76.0,50,,900,85.454414,chirps-v2.0.2019.03.tif
482887,28020420,SAN GABRIEL [28020420],9.844611111,-73.54769444,70,Pluviométrica,INSTITUTO DE HIDROLOGIA METEOROLOGIA Y ESTUDIOS AMBIENTALES,Area Operativa 05 - Magdalena-Cesar-Guajira,Cesar,San Diego,1972-09-15,,PRECIPITACION,PTPM_TT_M,Precipitación total mensual,Mensual,2019-03-01,157.0,50,,900,85.933815,chirps-v2.0.2019.03.tif
483720,25021650,YUCAL EL [25021650],9.557388889,-73.87619444,40,Pluviométrica,INSTITUTO DE HIDROLOGIA METEOROLOGIA Y ESTUDIOS AMBIENTALES,Area Operativa 05 - Magdalena-Cesar-Guajira,Cesar,Astrea,1984-11-15,,PRECIPITACION,PTPM_TT_M,Precipitación total mensual,Mensual,2019-03-01,91.0,50,,900,40.612576,chirps-v2.0.2019.03.tif
484219,28040030,BOSCONIA [28040030],9.97575,-73.88175,130,Pluviométrica,INSTITUTO DE HIDROLOGIA METEOROLOGIA Y ESTUDIOS AMBIENTALES,Area Operativa 05 - Magdalena-Cesar-Guajira,Cesar,Bosconia,1979-11-15,,PRECIPITACION,PTPM_TT_M,Precipitación total mensual,Mensual,2019-03-01,38.0,50,,900,48.497715,chirps-v2.0.2019.03.tif
484723,28020460,CODAZZI DC [28020460],10.04463889,-73.24338889,90,Pluviométrica,INSTITUTO DE HIDROLOGIA METEOROLOGIA Y ESTUDIOS AMBIENTALES,Area Operativa 05 - Magdalena-Cesar-Guajira,Cesar,Agustín Codazzi,1979-11-15,,PRECIPITACION,PTPM_TT_M,Precipitación total mensual,Mensual,2019-03-01,83.0,50,,900,84.914764,chirps-v2.0.2019.03.tif
485217,28020150,ESPERANZA LA HACIENDA [28020150],10.02997222,-73.66883333,60,Pluviométrica,INSTITUTO DE HIDROLOGIA METEOROLOGIA Y ESTUDIOS AMBIENTALES,Area Operativa 05 - Magdalena-Cesar-Guajira,Cesar,Valledupar,1961-05-15,,PRECIPITACION,PTPM_TT_M,Precipitación total mensual,Mensual,2019-03-01,81.0,50,,900,54.554497,chirps-v2.0.2019.03.tif
485806,28035040,GUAYMARAL [28035040],9.904916667,-73.64752778,50,Climática Ordinaria,INSTITUTO DE HIDROLOGIA METEOROLOGIA Y ESTUDIOS AMBIENTALES,Area Operativa 05 - Magdalena-Cesar-Guajira,Cesar,Valledupar,1972-08-15,,PRECIPITACION,PTPM_TT_M,Precipitación total mensual,Mensual,2019-03-01,253.2,50,,900,72.38986,chirps-v2.0.2019.03.tif
486444,28040270,MANATURE HACIENDA [28040270],10.03511111,-73.78852778,150,Pluviométrica,INSTITUTO DE HIDROLOGIA METEOROLOGIA Y ESTUDIOS AMBIENTALES,Area Operativa 05 - Magdalena-Cesar-Guajira,Cesar,Bosconia,1968-09-15,,PRECIPITACION,PTPM_TT_M,Precipitación total mensual,Mensual,2019-03-01,55.0,50,,900,52.417873,chirps-v2.0.2019.03.tif
487013,28025070,MOTILONIA CODAZZI [28025070],10.00180556,-73.24938889,180,Agrometeorológica,INSTITUTO DE HIDROLOGIA METEOROLOGIA Y ESTUDIOS AMBIENTALES,Area Operativa 05 - Magdalena-Cesar-Guajira,Cesar,Agustín Codazzi,1956-01-15,,PRECIPITACION,PTPM_TT_M,Precipitación total mensual,Mensual,2019-03-01,129.4,50,,900,84.914764,chirps-v2.0.2019.03.tif
487716,28040070,PALMARIGUANI [28040070],9.930083333,-73.95488889,80,Pluviométrica,INSTITUTO DE HIDROLOGIA METEOROLOGIA Y ESTUDIOS AMBIENTALES,Area Operativa 05 - Magdalena-Cesar-Guajira,Cesar,Bosconia,1963-01-15,,PRECIPITACION,PTPM_TT_M,Precipitación total mensual,Mensual,2019-03-01,70.0,50,,900,45.60639,chirps-v2.0.2019.03.tif
488661,28020600,RETORNO EL [28020600],9.854722222,-73.35716667,150,Pluviométrica,INSTITUTO DE HIDROLOGIA METEOROLOGIA Y ESTUDIOS AMBIENTALES,Area Operativa 05 - Magdalena-Cesar-Guajira,Cesar,Agustín Codazzi,1979-02-15,,PRECIPITACION,PTPM_TT_M,Precipitación total mensual,Mensual,2019-03-01,56.0,50,,900,74.16485,chirps-v2.0.2019.03.tif
489388,28020440,SANTA TERESA HACIENDA [28020440],9.917027778,-73.28613889,80,Pluviométrica,INSTITUTO DE HIDROLOGIA METEOROLOGIA Y ESTUDIOS AMBIENTALES,Area Operativa 05 - Magdalena-Cesar-Guajira,Cesar,Agustín Codazzi,1959-04-15,,PRECIPITACION,PTPM_TT_M,Precipitación total mensual,Mensual,2019-03-01,71.0,50,,900,83.895676,chirps-v2.0.2019.03.tif
490416,28030190,CARACOLI [28030190],10.08869444,-73.73172222,220,Pluviométrica,INSTITUTO DE HIDROLOGIA METEOROLOGIA Y ESTUDIOS AMBIENTALES,Area Operativa 05 - Magdalena-Cesar-Guajira,Cesar,Valledupar,1972-07-15,,PRECIPITACION,PTPM_TT_M,Precipitación total mensual,Mensual,2019-03-01,61.0,50,,900,49.893623,chirps-v2.0.2019.03.tif
491799,28010370,PARIS DE FRANCIA [28010370],10.30708333,-73.32544444,180,Pluviométrica,INSTITUTO DE HIDROLOGIA METEOROLOGIA Y ESTUDIOS AMBIENTALES,Area Operativa 05 - Magdalena-Cesar-Guajira,Cesar,Valledupar,1971-11-15,,PRECIPITACION,PTPM_TT_M,Precipitación total mensual,Mensual,2019-03-01,23.0,50,,900,29.440556,chirps-v2.0.2019.03.tif
492830,28025020,RINCON EL [28025020],10.27138889,-73.13138889,350,Climática Ordinaria,INSTITUTO DE HIDROLOGIA METEOROLOGIA Y ESTUDIOS AMBIENTALES,Area Operativa 05 - Magdalena-Cesar-Guajira,Cesar,San Diego,1964-02-15,,PRECIPITACION,PTPM_TT_M,Precipitación total mensual,Mensual,2019-03-01,57.3,50,,900,36.2569,chirps-v2.0.2019.03.tif
493379,28020410,SAN BENITO [28020410],10.18416667,-73.31702778,150,Pluviométrica,INSTITUTO DE HIDROLOGIA METEOROLOGIA Y ESTUDIOS AMBIENTALES,Area Operativa 05 - Magdalena-Cesar-Guajira,Cesar,San Diego,1972-09-15,,PRECIPITACION,PTPM_TT_M,Precipitación total mensual,Mensual,2019-03-01,160.0,50,,900,39.29323,chirps-v2.0.2019.03.tif
493987,28010070,VILLA MARLENE [28010070],10.1855,-73.46711111,120,Pluviométrica,INSTITUTO DE HIDROLOGIA METEOROLOGIA Y ESTUDIOS AMBIENTALES,Area Operativa 05 - Magdalena-Cesar-Guajira,Cesar,Valledupar,1987-01-15,,PRECIPITACION,PTPM_TT_M,Precipitación total mensual,Mensual,2019-03-01,51.0,50,,900,44.07164,chirps-v2.0.2019.03.tif
495311,28010360,ATANQUEZ [28010360],10.69733333,-73.35305556,800,Pluviométrica,INSTITUTO DE HIDROLOGIA METEOROLOGIA Y ESTUDIOS AMBIENTALES,Area Operativa 05 - Magdalena-Cesar-Guajira,Cesar,Valledupar,1959-04-15,,PRECIPITACION,PTPM_TT_M,Precipitación total mensual,Mensual,2019-03-01,33.0,50,,900,18.995024,chirps-v2.0.2019.03.tif
495927,28035020,CALLAO EL [28035020],10.36305556,-73.31944444,110,Climática Ordinaria,INSTITUTO DE HIDROLOGIA METEOROLOGIA Y ESTUDIOS AMBIENTALES,Area Operativa 05 - Magdalena-Cesar-Guajira,Cesar,Valledupar,1968-03-15,,PRECIPITACION,PTPM_TT_M,Precipitación total mensual,Mensual,2019-03-01,2.6,50,,900,26.43394,chirps-v2.0.2019.03.tif
497219,28010040,MANAURE [28010040],10.39138889,-73.02527778,740,Pluviométrica,INSTITUTO DE HIDROLOGIA METEOROLOGIA Y ESTUDIOS AMBIENTALES,Area Operativa 05 - Magdalena-Cesar-Guajira,Cesar,Manaure Balcón Del Cesar,1975-09-15,,PRECIPITACION,PTPM_TT_M,Precipitación total mensual,Mensual,2019-03-01,50.5,4,,900,19.638597,chirps-v2.0.2019.03.tif
497928,28040010,PUEBLO BELLO [28040010],10.41463889,-73.58502778,10,Pluviométrica,INSTITUTO DE HIDROLOGIA METEOROLOGIA Y ESTUDIOS AMBIENTALES,Area Operativa 05 - Magdalena-Cesar-Guajira,Cesar,Pueblo Bello,1963-01-15,,PRECIPITACION,PTPM_TT_M,Precipitación total mensual,Mensual,2019-03-01,29.0,50,,900,48.10813,chirps-v2.0.2019.03.tif
499140,29060090,SAN SEBASTIAN DE [29060090],10.56330556,-73.60380556,20,Pluviométrica,INSTITUTO DE HIDROLOGIA METEOROLOGIA Y ESTUDIOS AMBIENTALES,Area Operativa 05 - Magdalena-Cesar-Guajira,Cesar,Pueblo Bello,1968-05-15,,PRECIPITACION,PTPM_TT_M,Precipitación total mensual,Mensual,2019-03-01,122.0,50,,900,32.791935,chirps-v2.0.2019.03.tif
501697,15060080,CANAVERALES [15060080],10.75777778,-72.84522222,230,Pluviométrica,INSTITUTO DE HIDROLOGIA METEOROLOGIA Y ESTUDIOS AMBIENTALES,Area Operativa 05 - Magdalena-Cesar-Guajira,La Guajira,San Juan Del Cesar,1963-08-15,,PRECIPITACION,PTPM_TT_M,Precipitación total mensual,Mensual,2019-03-01,15.0,50,,900,7.6310368,chirps-v2.0.2019.03.tif
502250,15060150,CONEJO EL [15060150],10.77794444,-72.79819444,350,Pluviométrica,INSTITUTO DE HIDROLOGIA METEOROLOGIA Y ESTUDIOS AMBIENTALES,Area Operativa 05 - Magdalena-Cesar-Guajira,La Guajira,Fonseca,1975-10-15,,PRECIPITACION,PTPM_TT_M,Precipitación total mensual,Mensual,2019-03-01,8.0,50,,900,7.8715224,chirps-v2.0.2019.03.tif
502838,28010200,HATICO D LOS INDIO [28010200],10.86022222,-73.11416667,594,Pluviométrica,INSTITUTO DE HIDROLOGIA METEOROLOGIA Y ESTUDIOS AMBIENTALES,Area Operativa 05 - Magdalena-Cesar-Guajira,La Guajira,San Juan Del Cesar,1970-01-15,,PRECIPITACION,PTPM_TT_M,Precipitación total mensual,Mensual,2019-03-01,0.0,50,,900,4.6190934,chirps-v2.0.2019.03.tif
504527,15060050,SABANAS DE MANUELA [15060050],10.953,-73.04797222,420,Pluviométrica,INSTITUTO DE HIDROLOGIA METEOROLOGIA Y ESTUDIOS AMBIENTALES,Area Operativa 05 - Magdalena-Cesar-Guajira,La Guajira,Distracción,1963-08-15,,PRECIPITACION,PTPM_TT_M,Precipitación total mensual,Mensual,2019-03-01,0.0,50,,900,5.8288727,chirps-v2.0.2019.03.tif
505077,28015070,URUMITA [28015070],10.56638889,-73.01638889,255,Climática Ordinaria,INSTITUTO DE HIDROLOGIA METEOROLOGIA Y ESTUDIOS AMBIENTALES,Area Operativa 05 - Magdalena-Cesar-Guajira,La Guajira,Urumita,1975-08-15,,PRECIPITACION,PTPM_TT_M,Precipitación total mensual,Mensual,2019-03-01,2.1,4,,900,13.5410595,chirps-v2.0.2019.03.tif
505654,28010340,VILLANUEVA [28010340],10.61583333,-72.98194444,340,Pluviométrica,INSTITUTO DE HIDROLOGIA METEOROLOGIA Y ESTUDIOS AMBIENTALES,Area Operativa 05 - Magdalena-Cesar-Guajira,La Guajira,Villanueva,1970-08-15,,PRECIPITACION,PTPM_TT_M,Precipitación total mensual,Mensual,2019-03-01,1.0,50,,900,12.85556,chirps-v2.0.2019.03.tif
506324,25025090,AEROPUERTO LAS FLORES [25025090],9.046333333,-73.97083333,34,Climática Principal,INSTITUTO DE HIDROLOGIA METEOROLOGIA Y ESTUDIOS AMBIENTALES,Area Operativa 05 - Magdalena-Cesar-Guajira,Magdalena,El Banco,1952-02-15,,PRECIPITACION,PTPM_TT_M,Precipitación total mensual,Mensual,2019-03-01,66.8,50,,900,41.67576,chirps-v2.0.2019.03.tif
506899,28040320,BRILLANTE EL [28040320],9.70275,-73.95913889,135,Pluviométrica,INSTITUTO DE HIDROLOGIA METEOROLOGIA Y ESTUDIOS AMBIENTALES,Area Operativa 05 - Magdalena-Cesar-Guajira,Magdalena,Santa Ana,1972-07-15,,PRECIPITACION,PTPM_TT_M,Precipitación total mensual,Mensual,2019-03-01,179.0,50,,900,54.932873,chirps-v2.0.2019.03.tif
507363,25021620,IRAN [25021620],9.683777778,-74.32216667,80,Pluviométrica,INSTITUTO DE HIDROLOGIA METEOROLOGIA Y ESTUDIOS AMBIENTALES,Area Operativa 05 - Magdalena-Cesar-Guajira,Magdalena,Nueva Granada,1982-06-15,,PRECIPITACION,PTPM_TT_M,Precipitación total mensual,Mensual,2019-03-01,63.0,50,,900,37.520683,chirps-v2.0.2019.03.tif
507931,25021040,MENCHIQUEJO [25021040],9.188055556,-74.04422222,25,Pluviométrica,INSTITUTO DE HIDROLOGIA METEOROLOGIA Y ESTUDIOS AMBIENTALES,Area Operativa 05 - Magdalena-Cesar-Guajira,Magdalena,El Banco,1974-09-15,,PRECIPITACION,PTPM_TT_M,Precipitación total mensual,Mensual,2019-03-01,46.0,50,,900,53.763424,chirps-v2.0.2019.03.tif
508464,25021200,NEGRITOS LOS [25021200],9.026666667,-74.07944444,26,Pluviométrica,INSTITUTO DE HIDROLOGIA METEOROLOGIA Y ESTUDIOS AMBIENTALES,Area Operativa 02 - Atlántico-Bolivar-Sucre,Magdalena,El Banco,1976-07-15,,PRECIPITACION,PTPM_TT_M,Precipitación total mensual,Mensual,2019-03-01,11.0,50,,900,42.053665,chirps-v2.0.2019.03.tif
508987,25021500,PUEBLITO EL [25021500],9.581166667,-74.35225,35,Pluviométrica,INSTITUTO DE HIDROLOGIA METEOROLOGIA Y ESTUDIOS AMBIENTALES,Area Operativa 05 - Magdalena-Cesar-Guajira,Magdalena,Santa Ana,1976-10-15,,PRECIPITACION,PTPM_TT_M,Precipitación total mensual,Mensual,2019-03-01,71.0,50,,900,32.284954,chirps-v2.0.2019.03.tif
509465,25021380,SAN ROQUE ALERTAS [25021380],9.07,-74.15,24,Pluviométrica,INSTITUTO DE HIDROLOGIA METEOROLOGIA Y ESTUDIOS AMBIENTALES,Area Operativa 02 - Atlántico-Bolivar-Sucre,Magdalena,El Banco,1980-05-15,,PRECIPITACION,PTPM_TT_M,Precipitación total mensual,Mensual,2019-03-01,31.0,4,,900,42.022682,chirps-v2.0.2019.03.tif
510012,25020900,SAN SEBASTIAN [25020900],9.233888889,-74.35583333,65,Pluviométrica,INSTITUTO DE HIDROLOGIA METEOROLOGIA Y ESTUDIOS AMBIENTALES,Area Operativa 02 - Atlántico-Bolivar-Sucre,Magdalena,San Sebastián De Buenavista,1974-01-15,,PRECIPITACION,PTPM_TT_M,Precipitación total mensual,Mensual,2019-03-01,0.0,50,,900,24.046024,chirps-v2.0.2019.03.tif
510522,25025300,SEIS EL [25025300],9.683666667,-74.32227778,50,Climática Ordinaria,INSTITUTO DE HIDROLOGIA METEOROLOGIA Y ESTUDIOS AMBIENTALES,Area Operativa 05 - Magdalena-Cesar-Guajira,Magdalena,San Sebastián De Buenavista,1984-11-15,,PRECIPITACION,PTPM_TT_M,Precipitación total mensual,Mensual,2019-03-01,77.0,50,,900,37.520683,chirps-v2.0.2019.03.tif
511590,25021540,AGUADAS LAS ALERTA [25021540],8.949997222,-74.049997222,30,Pluviométrica,INSTITUTO DE HIDROLOGIA METEOROLOGIA Y ESTUDIOS AMBIENTALES,Area Operativa 02 - Atlántico-Bolivar-Sucre,Bolivar,San Martín De Loba,1978-11-15,,PRECIPITACION,PTPM_TT_M,Precipitación total mensual,Mensual,2019-03-01,64.0,50,,900,39.335968,chirps-v2.0.2019.03.tif
512143,25020880,BARRANCO DE LOBA [25020880],8.946666667,-74.11055556,25,Pluviométrica,INSTITUTO DE HIDROLOGIA METEOROLOGIA Y ESTUDIOS AMBIENTALES,Area Operativa 02 - Atlántico-Bolivar-Sucre,Bolivar,Barranco De Loba,1974-09-15,,PRECIPITACION,PTPM_TT_M,Precipitación total mensual,Mensual,2019-03-01,22.0,50,,900,39.17837,chirps-v2.0.2019.03.tif
512685,25020890,CHILLOA [25020890],9.119388889,-74.22194444,20,Pluviométrica,INSTITUTO DE HIDROLOGIA METEOROLOGIA Y ESTUDIOS AMBIENTALES,Area Operativa 02 - Atlántico-Bolivar-Sucre,Bolivar,Margarita,1974-09-15,,PRECIPITACION,PTPM_TT_M,Precipitación total mensual,Mensual,2019-03-01,97.0,50,,900,34.737236,chirps-v2.0.2019.03.tif
513207,25021320,SUDAN EL [25021320],8.643333333,-74.21222222,23,Pluviométrica,INSTITUTO DE HIDROLOGIA METEOROLOGIA Y ESTUDIOS AMBIENTALES,Area Operativa 02 - Atlántico-Bolivar-Sucre,Bolivar,Tiquisio (Puerto Rico),1976-10-15,,PRECIPITACION,PTPM_TT_M,Precipitación total mensual,Mensual,2019-03-01,8.0,50,,900,46.077866,chirps-v2.0.2019.03.tif
514355,25020870,PLAYITAS [25020870],8.822777778,-73.96583333,40,Pluviométrica,INSTITUTO DE HIDROLOGIA METEOROLOGIA Y ESTUDIOS AMBIENTALES,Area Operativa 02 - Atlántico-Bolivar-Sucre,Bolivar,San Martín De Loba,1974-09-15,,PRECIPITACION,PTPM_TT_M,Precipitación total mensual,Mensual,2019-03-01,101.0,50,,900,33.89253,chirps-v2.0.2019.03.tif
514904,25021090,SANTA ROSA [25021090],9.093333333,-74.31388889,40,Pluviométrica,INSTITUTO DE HIDROLOGIA METEOROLOGIA Y ESTUDIOS AMBIENTALES,Area Operativa 02 - Atlántico-Bolivar-Sucre,Bolivar,San Fernando,1974-10-15,,PRECIPITACION,PTPM_TT_M,Precipitación total mensual,Mensual,2019-03-01,10.0,50,,900,34.499096,chirps-v2.0.2019.03.tif
