,CodigoEstacion,NombreEstacion,Latitud,Longitud,Altitud,Categoria,Entidad,AreaOperativa,Departamento,Municipio,FechaInstalacion,FechaSuspension,IdParametro,Etiqueta,DescripcionSerie,Frecuencia,Fecha,Valor,Grado,Calificador,NivelAprobacion,SatValue,SatDesc
28,25025330,COLEGIO AGROPECUARIO PAILITAS  - AUT [25025330],8.954222222,-73.63008333,50,Climática Principal,INSTITUTO DE HIDROLOGIA METEOROLOGIA Y ESTUDIOS AMBIENTALES,Area Operativa 05 - Magdalena-Cesar-Guajira,Cesar,Pailitas,1987-09-15,,PRECIPITACION,PTPM_TT_M,Precipitación total mensual,Mensual,1990-10-01,401.8,50,,900,362.5005,chirps-v2.0.1990.10.tif
719,23215060,LA GLORIA [23215060],8.615277778,-73.800555556,35,Climática Ordinaria,INSTITUTO DE HIDROLOGIA METEOROLOGIA Y ESTUDIOS AMBIENTALES,Area Operativa 08 - Santanderes-Arauca,Cesar,La Gloria,1995-05-15,2018-06-19 10:35:00,PRECIPITACION,PTPM_TT_M,Precipitación total mensual,Mensual,1990-10-01,238.7,50,,900,304.67288,chirps-v2.0.1990.10.tif
974,23215050,MATA LA [23215050],8.614444444,-73.63638889,163,Pluviométrica,INSTITUTO DE HIDROLOGIA METEOROLOGIA Y ESTUDIOS AMBIENTALES,Area Operativa 08 - Santanderes-Arauca,Cesar,La Gloria,1983-09-15,,PRECIPITACION,PTPM_TT_M,Precipitación total mensual,Mensual,1990-10-01,388.7,50,,900,289.67133,chirps-v2.0.1990.10.tif
1525,25020670,RAYA LA [25020670],9.050277778,-73.55972222,500,Pluviométrica,INSTITUTO DE HIDROLOGIA METEOROLOGIA Y ESTUDIOS AMBIENTALES,Area Operativa 05 - Magdalena-Cesar-Guajira,Cesar,Pailitas,1972-09-15,,PRECIPITACION,PTPM_TT_M,Precipitación total mensual,Mensual,1990-10-01,383.0,50,,900,414.81952,chirps-v2.0.1990.10.tif
1932,25021640,SANTA ISABEL [25021640],8.71275,-73.70255556,40,Pluviométrica,INSTITUTO DE HIDROLOGIA METEOROLOGIA Y ESTUDIOS AMBIENTALES,Area Operativa 05 - Magdalena-Cesar-Guajira,Cesar,Pelaya,1984-11-15,,PRECIPITACION,PTPM_TT_M,Precipitación total mensual,Mensual,1990-10-01,460.3,50,,900,373.86655,chirps-v2.0.1990.10.tif
2589,25021590,TAMALAMEQUE D C [25021590],8.866666667,-73.81666667,33,Pluviométrica,INSTITUTO DE HIDROLOGIA METEOROLOGIA Y ESTUDIOS AMBIENTALES,Area Operativa 05 - Magdalena-Cesar-Guajira,Cesar,Tamalameque,1979-11-15,1998-06-15 00:00:00,PRECIPITACION,PTPM_TT_M,Precipitación total mensual,Mensual,1990-10-01,267.4,50,,900,352.49353,chirps-v2.0.1990.10.tif
3035,25020090,TAMALAMEQUE [25020090],8.860388889,-73.81544444,20,Pluviométrica,INSTITUTO DE HIDROLOGIA METEOROLOGIA Y ESTUDIOS AMBIENTALES,Area Operativa 05 - Magdalena-Cesar-Guajira,Cesar,Tamalameque,1960-02-15,,PRECIPITACION,PTPM_TT_M,Precipitación total mensual,Mensual,1990-10-01,357.0,50,,900,352.49353,chirps-v2.0.1990.10.tif
3619,25020650,TERROR EL HACIENDA [25020650],8.938777778,-73.56022222,250,Pluviométrica,INSTITUTO DE HIDROLOGIA METEOROLOGIA Y ESTUDIOS AMBIENTALES,Area Operativa 05 - Magdalena-Cesar-Guajira,Cesar,Chimichagua,1972-09-15,,PRECIPITACION,PTPM_TT_M,Precipitación total mensual,Mensual,1990-10-01,317.0,50,,900,376.05923,chirps-v2.0.1990.10.tif
4145,25020660,ZAPATOZA [25020660],9.00975,-73.75402778,90,Pluviométrica,INSTITUTO DE HIDROLOGIA METEOROLOGIA Y ESTUDIOS AMBIENTALES,Area Operativa 05 - Magdalena-Cesar-Guajira,Cesar,Curumaní,1972-09-15,,PRECIPITACION,PTPM_TT_M,Precipitación total mensual,Mensual,1990-10-01,405.0,50,,900,407.38025,chirps-v2.0.1990.10.tif
4852,28040150,BELLAVISTA [28040150],10.30805556,-74.03922222,140,Pluviométrica,INSTITUTO DE HIDROLOGIA METEOROLOGIA Y ESTUDIOS AMBIENTALES,Area Operativa 05 - Magdalena-Cesar-Guajira,Magdalena,Algarrobo,1963-02-15,,PRECIPITACION,PTPM_TT_M,Precipitación total mensual,Mensual,1990-10-01,424.0,50,,900,265.73175,chirps-v2.0.1990.10.tif
5331,28040360,CABANA LA HACIENDA [28040360],9.861,-74.07672222,100,Pluviométrica,INSTITUTO DE HIDROLOGIA METEOROLOGIA Y ESTUDIOS AMBIENTALES,Area Operativa 05 - Magdalena-Cesar-Guajira,Magdalena,Ariguaní (El Dificil),1979-01-15,,PRECIPITACION,PTPM_TT_M,Precipitación total mensual,Mensual,1990-10-01,181.0,50,,900,199.78015,chirps-v2.0.1990.10.tif
5991,29060150,DESTINO EL [29060150],10.57366667,-74.22411111,20,Pluviométrica,INSTITUTO DE HIDROLOGIA METEOROLOGIA Y ESTUDIOS AMBIENTALES,Area Operativa 05 - Magdalena-Cesar-Guajira,Magdalena,El Retén,1967-01-15,,PRECIPITACION,PTPM_TT_M,Precipitación total mensual,Mensual,1990-10-01,388.0,4,,900,386.72818,chirps-v2.0.1990.10.tif
6420,29060560,DONA MARIA [29060560],10.38444444,-74.17794444,50,Pluviométrica,INSTITUTO DE HIDROLOGIA METEOROLOGIA Y ESTUDIOS AMBIENTALES,Area Operativa 05 - Magdalena-Cesar-Guajira,Magdalena,Fundación,1984-11-15,,PRECIPITACION,PTPM_TT_M,Precipitación total mensual,Mensual,1990-10-01,306.0,50,,900,347.73,chirps-v2.0.1990.10.tif
7198,29060040,FUNDACION [29060040],10.52436111,-74.18222222,40,Pluviométrica,INSTITUTO DE HIDROLOGIA METEOROLOGIA Y ESTUDIOS AMBIENTALES,Area Operativa 05 - Magdalena-Cesar-Guajira,Magdalena,Fundación,1958-03-15,,PRECIPITACION,PTPM_TT_M,Precipitación total mensual,Mensual,1990-10-01,371.0,50,,900,341.1306,chirps-v2.0.1990.10.tif
7759,29060200,MARIA LA [29060200],10.54066667,-74.18697222,30,Pluviométrica,INSTITUTO DE HIDROLOGIA METEOROLOGIA Y ESTUDIOS AMBIENTALES,Area Operativa 05 - Magdalena-Cesar-Guajira,Magdalena,Aracataca,1974-11-15,,PRECIPITACION,PTPM_TT_M,Precipitación total mensual,Mensual,1990-10-01,449.7,50,,900,341.1306,chirps-v2.0.1990.10.tif
8438,28040100,MONTERRUBIO [28040100],10.23369444,-74.27325,100,Pluviométrica,INSTITUTO DE HIDROLOGIA METEOROLOGIA Y ESTUDIOS AMBIENTALES,Area Operativa 05 - Magdalena-Cesar-Guajira,Magdalena,Pivijai,1963-01-15,,PRECIPITACION,PTPM_TT_M,Precipitación total mensual,Mensual,1990-10-01,398.0,50,,900,353.90472,chirps-v2.0.1990.10.tif
8899,25021630,NUEVA GRANADA [25021630],9.80175,-74.38855556,110,Pluviométrica,INSTITUTO DE HIDROLOGIA METEOROLOGIA Y ESTUDIOS AMBIENTALES,Area Operativa 05 - Magdalena-Cesar-Guajira,Magdalena,Nueva Granada,1982-06-15,,PRECIPITACION,PTPM_TT_M,Precipitación total mensual,Mensual,1990-10-01,119.0,50,,900,169.7327,chirps-v2.0.1990.10.tif
9575,28040140,SAN ANGEL [28040140],10.03305556,-74.21261111,140,Pluviométrica,INSTITUTO DE HIDROLOGIA METEOROLOGIA Y ESTUDIOS AMBIENTALES,Area Operativa 05 - Magdalena-Cesar-Guajira,Magdalena,Sabanas De San Ángel,1963-01-15,,PRECIPITACION,PTPM_TT_M,Precipitación total mensual,Mensual,1990-10-01,315.8,50,,900,246.38498,chirps-v2.0.1990.10.tif
10130,29060100,SANTA ROSA DE LIMA [29060100],10.40275,-74.108,75,Pluviométrica,INSTITUTO DE HIDROLOGIA METEOROLOGIA Y ESTUDIOS AMBIENTALES,Area Operativa 05 - Magdalena-Cesar-Guajira,Magdalena,Fundación,1975-08-15,,PRECIPITACION,PTPM_TT_M,Precipitación total mensual,Mensual,1990-10-01,467.0,50,,900,336.32553,chirps-v2.0.1990.10.tif
10695,29060350,BAYANO [29060350],10.63116667,-74.29858333,30,Pluviométrica,INSTITUTO DE HIDROLOGIA METEOROLOGIA Y ESTUDIOS AMBIENTALES,Area Operativa 05 - Magdalena-Cesar-Guajira,Magdalena,El Retén,1975-01-15,,PRECIPITACION,PTPM_TT_M,Precipitación total mensual,Mensual,1990-10-01,711.0,50,,900,347.87555,chirps-v2.0.1990.10.tif
11208,29060030,BONGO EL [29060030],10.64877778,-74.3755,20,Pluviométrica,INSTITUTO DE HIDROLOGIA METEOROLOGIA Y ESTUDIOS AMBIENTALES,Area Operativa 05 - Magdalena-Cesar-Guajira,Magdalena,El Retén,1975-09-15,,PRECIPITACION,PTPM_TT_M,Precipitación total mensual,Mensual,1990-10-01,428.0,50,,900,318.70578,chirps-v2.0.1990.10.tif
11867,29060140,CARMEN EL [29060140],10.6755,-74.20644444,25,Pluviométrica,INSTITUTO DE HIDROLOGIA METEOROLOGIA Y ESTUDIOS AMBIENTALES,Area Operativa 05 - Magdalena-Cesar-Guajira,Magdalena,Zona Bananera,1967-03-15,,PRECIPITACION,PTPM_TT_M,Precipitación total mensual,Mensual,1990-10-01,391.0,50,,900,381.94208,chirps-v2.0.1990.10.tif
12611,29060060,CENIZO EL [29060060],10.65161111,-74.07322222,450,Pluviométrica,INSTITUTO DE HIDROLOGIA METEOROLOGIA Y ESTUDIOS AMBIENTALES,Area Operativa 05 - Magdalena-Cesar-Guajira,Magdalena,Aracataca,1959-03-15,,PRECIPITACION,PTPM_TT_M,Precipitación total mensual,Mensual,1990-10-01,319.0,50,,900,401.9216,chirps-v2.0.1990.10.tif
13172,29060190,FLORIDA LA [29060190],10.61063889,-74.25538889,26,Pluviométrica,INSTITUTO DE HIDROLOGIA METEOROLOGIA Y ESTUDIOS AMBIENTALES,Area Operativa 05 - Magdalena-Cesar-Guajira,Magdalena,El Retén,1973-04-15,2019-02-07 11:43:00,PRECIPITACION,PTPM_TT_M,Precipitación total mensual,Mensual,1990-10-01,521.0,50,,900,347.87555,chirps-v2.0.1990.10.tif
13761,29060170,GAVILAN [29060170],10.68044444,-74.33069444,20,Pluviométrica,INSTITUTO DE HIDROLOGIA METEOROLOGIA Y ESTUDIOS AMBIENTALES,Area Operativa 05 - Magdalena-Cesar-Guajira,Magdalena,El Retén,1967-03-15,,PRECIPITACION,PTPM_TT_M,Precipitación total mensual,Mensual,1990-10-01,101.0,50,,900,321.4845,chirps-v2.0.1990.10.tif
14414,29065020,PADELMA [29065020],10.72111111,-74.19972222,20,Climática Ordinaria,INSTITUTO DE HIDROLOGIA METEOROLOGIA Y ESTUDIOS AMBIENTALES,Area Operativa 05 - Magdalena-Cesar-Guajira,Magdalena,Zona Bananera,1967-08-15,,PRECIPITACION,PTPM_TT_M,Precipitación total mensual,Mensual,1990-10-01,401.6,50,,900,421.77753,chirps-v2.0.1990.10.tif
15062,29060270,PALO ALTO [29060270],10.7225,-74.27191667,25,Pluviométrica,INSTITUTO DE HIDROLOGIA METEOROLOGIA Y ESTUDIOS AMBIENTALES,Area Operativa 05 - Magdalena-Cesar-Guajira,Magdalena,Puebloviejo,1967-01-15,,PRECIPITACION,PTPM_TT_M,Precipitación total mensual,Mensual,1990-10-01,367.0,50,,900,333.1344,chirps-v2.0.1990.10.tif
15720,29060240,UNION LA [29060240],10.70655556,-74.22355556,20,Pluviométrica,INSTITUTO DE HIDROLOGIA METEOROLOGIA Y ESTUDIOS AMBIENTALES,Area Operativa 05 - Magdalena-Cesar-Guajira,Magdalena,Zona Bananera,1967-01-15,2019-02-07 11:43:00,PRECIPITACION,PTPM_TT_M,Precipitación total mensual,Mensual,1990-10-01,324.0,50,,900,372.97183,chirps-v2.0.1990.10.tif
16523,29060180,ESPERANZA LA [29060180],10.74252778,-74.30627778,25,Pluviométrica,INSTITUTO DE HIDROLOGIA METEOROLOGIA Y ESTUDIOS AMBIENTALES,Area Operativa 05 - Magdalena-Cesar-Guajira,Magdalena,Puebloviejo,1975-10-15,,PRECIPITACION,PTPM_TT_M,Precipitación total mensual,Mensual,1990-10-01,325.0,50,,900,332.04053,chirps-v2.0.1990.10.tif
17061,29060340,PALMOR EL [29060340],10.77344444,-74.02563889,1200,Pluviométrica,INSTITUTO DE HIDROLOGIA METEOROLOGIA Y ESTUDIOS AMBIENTALES,Area Operativa 05 - Magdalena-Cesar-Guajira,Magdalena,Ciénaga,1975-09-15,,PRECIPITACION,PTPM_TT_M,Precipitación total mensual,Mensual,1990-10-01,170.0,50,,900,468.9898,chirps-v2.0.1990.10.tif
17437,29060330,PLAYA LA [29060330],10.76197222,-74.12047222,20,Pluviométrica,INSTITUTO DE HIDROLOGIA METEOROLOGIA Y ESTUDIOS AMBIENTALES,Area Operativa 05 - Magdalena-Cesar-Guajira,Magdalena,Zona Bananera,1990-01-15,2019-02-07 11:32:00,PRECIPITACION,PTPM_TT_M,Precipitación total mensual,Mensual,1990-10-01,427.0,50,,900,391.24817,chirps-v2.0.1990.10.tif
17900,29060220,POLY LA [29060220],10.81666667,-74.18333333,24,Pluviométrica,INSTITUTO DE HIDROLOGIA METEOROLOGIA Y ESTUDIOS AMBIENTALES,Area Operativa 05 - Magdalena-Cesar-Guajira,Magdalena,Zona Bananera,1972-01-15,2002-02-15 00:00:00,PRECIPITACION,PTPM_TT_M,Precipitación total mensual,Mensual,1990-10-01,477.0,50,,900,388.5445,chirps-v2.0.1990.10.tif
18281,29065030,PRADO SEVILLA [29065030],10.76416667,-74.15472222,18,Climática Ordinaria,INSTITUTO DE HIDROLOGIA METEOROLOGIA Y ESTUDIOS AMBIENTALES,Area Operativa 05 - Magdalena-Cesar-Guajira,Magdalena,Zona Bananera,1970-07-15,2019-02-07 11:32:00,PRECIPITACION,PTPM_TT_M,Precipitación total mensual,Mensual,1990-10-01,580.9,50,,900,392.11557,chirps-v2.0.1990.10.tif
18849,29060250,PROYECTOS LOS [29060250],10.73672222,-74.23708333,20,Pluviométrica,INSTITUTO DE HIDROLOGIA METEOROLOGIA Y ESTUDIOS AMBIENTALES,Area Operativa 05 - Magdalena-Cesar-Guajira,Magdalena,Zona Bananera,1967-01-15,,PRECIPITACION,PTPM_TT_M,Precipitación total mensual,Mensual,1990-10-01,311.0,50,,900,372.97183,chirps-v2.0.1990.10.tif
19298,29060550,RUBY EL [29060550],10.84513889,-74.18822222,20,Pluviométrica,INSTITUTO DE HIDROLOGIA METEOROLOGIA Y ESTUDIOS AMBIENTALES,Area Operativa 05 - Magdalena-Cesar-Guajira,Magdalena,Zona Bananera,1984-03-15,2019-02-07 11:33:00,PRECIPITACION,PTPM_TT_M,Precipitación total mensual,Mensual,1990-10-01,466.0,50,,900,388.5445,chirps-v2.0.1990.10.tif
19751,29060290,SAN JUAN [29060290],10.76666667,-74.16666667,25,Pluviométrica,INSTITUTO DE HIDROLOGIA METEOROLOGIA Y ESTUDIOS AMBIENTALES,Area Operativa 05 - Magdalena-Cesar-Guajira,Magdalena,Zona Bananera,1975-05-15,2002-02-15 00:00:00,PRECIPITACION,PTPM_TT_M,Precipitación total mensual,Mensual,1990-10-01,627.0,50,,900,392.11557,chirps-v2.0.1990.10.tif
20234,29060070,SAN PABLO [29060070],10.80819444,-74.02680556,800,Pluviométrica,INSTITUTO DE HIDROLOGIA METEOROLOGIA Y ESTUDIOS AMBIENTALES,Area Operativa 05 - Magdalena-Cesar-Guajira,Magdalena,Ciénaga,1960-08-15,,PRECIPITACION,PTPM_TT_M,Precipitación total mensual,Mensual,1990-10-01,586.0,50,,900,458.95276,chirps-v2.0.1990.10.tif
20834,29060230,SARA LA [29060230],10.83622222,-74.16102778,25,Pluviométrica,INSTITUTO DE HIDROLOGIA METEOROLOGIA Y ESTUDIOS AMBIENTALES,Area Operativa 05 - Magdalena-Cesar-Guajira,Magdalena,Zona Bananera,1971-08-15,2019-02-07 11:33:00,PRECIPITACION,PTPM_TT_M,Precipitación total mensual,Mensual,1990-10-01,549.0,50,,900,388.5445,chirps-v2.0.1990.10.tif
21267,29060160,ENANO EL [29060160],10.90219444,-74.18947222,25,Pluviométrica,INSTITUTO DE HIDROLOGIA METEOROLOGIA Y ESTUDIOS AMBIENTALES,Area Operativa 05 - Magdalena-Cesar-Guajira,Magdalena,Zona Bananera,1974-11-15,,PRECIPITACION,PTPM_TT_M,Precipitación total mensual,Mensual,1990-10-01,561.8,50,,900,362.66605,chirps-v2.0.1990.10.tif
21911,29060210,PALMA LA [29060210],10.96683333,-74.20469444,23,Pluviométrica,INSTITUTO DE HIDROLOGIA METEOROLOGIA Y ESTUDIOS AMBIENTALES,Area Operativa 05 - Magdalena-Cesar-Guajira,Magdalena,Ciénaga,1967-03-15,,PRECIPITACION,PTPM_TT_M,Precipitación total mensual,Mensual,1990-10-01,549.8,50,,900,357.72415,chirps-v2.0.1990.10.tif
22571,29060280,SAN ISIDRO [29060280],10.90083333,-74.22061111,25,Pluviométrica,INSTITUTO DE HIDROLOGIA METEOROLOGIA Y ESTUDIOS AMBIENTALES,Area Operativa 05 - Magdalena-Cesar-Guajira,Magdalena,Zona Bananera,1967-01-15,,PRECIPITACION,PTPM_TT_M,Precipitación total mensual,Mensual,1990-10-01,630.2,50,,900,407.20627,chirps-v2.0.1990.10.tif
23088,29060310,SEVILLANO [29060310],10.93305556,-74.25244444,5,Pluviométrica,INSTITUTO DE HIDROLOGIA METEOROLOGIA Y ESTUDIOS AMBIENTALES,Area Operativa 05 - Magdalena-Cesar-Guajira,Magdalena,Ciénaga,1979-09-15,,PRECIPITACION,PTPM_TT_M,Precipitación total mensual,Mensual,1990-10-01,462.0,50,,900,402.41397,chirps-v2.0.1990.10.tif
23766,29060120,TASAJERA [29060120],10.97622222,-74.36175,2,Pluviométrica,INSTITUTO DE HIDROLOGIA METEOROLOGIA Y ESTUDIOS AMBIENTALES,Area Operativa 05 - Magdalena-Cesar-Guajira,Magdalena,Puebloviejo,1965-08-15,,PRECIPITACION,PTPM_TT_M,Precipitación total mensual,Mensual,1990-10-01,204.0,50,,900,467.7187,chirps-v2.0.1990.10.tif
24416,15015020,YE LA [15015020],10.99241667,-74.21113889,20,Climática Ordinaria,INSTITUTO DE HIDROLOGIA METEOROLOGIA Y ESTUDIOS AMBIENTALES,Area Operativa 05 - Magdalena-Cesar-Guajira,Magdalena,Ciénaga,1967-07-15,2019-02-07 11:34:00,PRECIPITACION,PTPM_TT_M,Precipitación total mensual,Mensual,1990-10-01,403.1,50,,900,357.72415,chirps-v2.0.1990.10.tif
24835,16060010,CNO LA RAYA [16060010],8.834722222,-72.79166667,75,Pluviométrica,INSTITUTO DE HIDROLOGIA METEOROLOGIA Y ESTUDIOS AMBIENTALES,Area Operativa 08 - Santanderes-Arauca,Norte De Santander,Tibú,1973-04-15,,PRECIPITACION,PTPM_TT_M,Precipitación total mensual,Mensual,1990-10-01,550.0,50,,900,489.04733,chirps-v2.0.1990.10.tif
25394,16070030,HACHARIRA [16070030],8.875833333,-72.98222222,75,Pluviométrica,INSTITUTO DE HIDROLOGIA METEOROLOGIA Y ESTUDIOS AMBIENTALES,Area Operativa 08 - Santanderes-Arauca,Norte De Santander,El Tarra,1973-04-15,2018-07-13 12:10:00,PRECIPITACION,PTPM_TT_M,Precipitación total mensual,Mensual,1990-10-01,544.0,50,,900,523.3136,chirps-v2.0.1990.10.tif
26231,16050240,PALACIO EL [16050240],8.610333333,-73.35113889,1280,Pluviométrica,INSTITUTO DE HIDROLOGIA METEOROLOGIA Y ESTUDIOS AMBIENTALES,Area Operativa 08 - Santanderes-Arauca,Norte De Santander,Convención,1984-03-15,2014-08-28 00:00:00,PRECIPITACION,PTPM_TT_M,Precipitación total mensual,Mensual,1990-10-01,201.0,50,,900,324.96063,chirps-v2.0.1990.10.tif
26534,16070020,PISTA LA [16070020],9.116666667,-72.86666667,50,Pluviométrica,INSTITUTO DE HIDROLOGIA METEOROLOGIA Y ESTUDIOS AMBIENTALES,Area Operativa 08 - Santanderes-Arauca,Norte De Santander,Tibú,1986-02-15,2019-01-21 08:00:00,PRECIPITACION,PTPM_TT_M,Precipitación total mensual,Mensual,1990-10-01,712.0,50,,900,627.41614,chirps-v2.0.1990.10.tif
26843,16070010,PUERTO BARCO [16070010],8.998055556,-72.89694444,50,Pluviométrica,INSTITUTO DE HIDROLOGIA METEOROLOGIA Y ESTUDIOS AMBIENTALES,Area Operativa 08 - Santanderes-Arauca,Norte De Santander,Tibú,1973-04-15,,PRECIPITACION,PTPM_TT_M,Precipitación total mensual,Mensual,1990-10-01,528.0,50,,900,501.97372,chirps-v2.0.1990.10.tif
390716,25020220,ASTREA [25020220],9.492944444,-73.97288889,50,Pluviométrica,INSTITUTO DE HIDROLOGIA METEOROLOGIA Y ESTUDIOS AMBIENTALES,Area Operativa 05 - Magdalena-Cesar-Guajira,Cesar,Astrea,1962-04-15,,PRECIPITACION,PTPM_TT_M,Precipitación total mensual,Mensual,1990-10-01,406.0,50,,900,276.23926,chirps-v2.0.1990.10.tif
391421,25020240,CANAL EL [25020240],9.410472222,-73.89041667,70,Pluviométrica,INSTITUTO DE HIDROLOGIA METEOROLOGIA Y ESTUDIOS AMBIENTALES,Area Operativa 05 - Magdalena-Cesar-Guajira,Cesar,Chimichagua,1963-03-15,,PRECIPITACION,PTPM_TT_M,Precipitación total mensual,Mensual,1990-10-01,293.0,50,,900,297.50598,chirps-v2.0.1990.10.tif
392014,25021240,CHIMICHAGUA [25021240],9.260083333,-73.80986111,138,Pluviométrica,INSTITUTO DE HIDROLOGIA METEOROLOGIA Y ESTUDIOS AMBIENTALES,Area Operativa 05 - Magdalena-Cesar-Guajira,Cesar,Chimichagua,1972-07-15,,PRECIPITACION,PTPM_TT_M,Precipitación total mensual,Mensual,1990-10-01,445.5,50,,900,416.49994,chirps-v2.0.1990.10.tif
392596,25025250,CHIRIGUANA [25025250],9.361027778,-73.59338889,40,Climática Ordinaria,INSTITUTO DE HIDROLOGIA METEOROLOGIA Y ESTUDIOS AMBIENTALES,Area Operativa 05 - Magdalena-Cesar-Guajira,Cesar,Chiriguaná,1973-06-15,,PRECIPITACION,PTPM_TT_M,Precipitación total mensual,Mensual,1990-10-01,419.4,50,,900,457.5803,chirps-v2.0.1990.10.tif
393039,25021580,CURUMANI D C [25021580],9.183333333,-73.53333333,100,Pluviométrica,INSTITUTO DE HIDROLOGIA METEOROLOGIA Y ESTUDIOS AMBIENTALES,Area Operativa 05 - Magdalena-Cesar-Guajira,Cesar,Curumaní,1979-11-15,1996-08-15 00:00:00,PRECIPITACION,PTPM_TT_M,Precipitación total mensual,Mensual,1990-10-01,470.0,50,,900,405.34927,chirps-v2.0.1990.10.tif
393443,25020250,CURUMANI [25020250],9.197194444,-73.54194444,100,Pluviométrica,INSTITUTO DE HIDROLOGIA METEOROLOGIA Y ESTUDIOS AMBIENTALES,Area Operativa 05 - Magdalena-Cesar-Guajira,Cesar,Curumaní,1963-03-15,,PRECIPITACION,PTPM_TT_M,Precipitación total mensual,Mensual,1990-10-01,553.0,50,,900,405.34927,chirps-v2.0.1990.10.tif
394023,25020690,POPONTE [25020690],9.423277778,-73.41094444,500,Pluviométrica,INSTITUTO DE HIDROLOGIA METEOROLOGIA Y ESTUDIOS AMBIENTALES,Area Operativa 05 - Magdalena-Cesar-Guajira,Cesar,Curumaní,1972-09-15,,PRECIPITACION,PTPM_TT_M,Precipitación total mensual,Mensual,1990-10-01,120.0,4,,900,382.95856,chirps-v2.0.1990.10.tif
394616,25020920,PRIMAVERA LA [25020920],9.216666667,-73.41666667,500,Pluviométrica,INSTITUTO DE HIDROLOGIA METEOROLOGIA Y ESTUDIOS AMBIENTALES,Area Operativa 05 - Magdalena-Cesar-Guajira,Cesar,Curumaní,1972-09-15,2019-02-07 11:35:00,PRECIPITACION,PTPM_TT_M,Precipitación total mensual,Mensual,1990-10-01,350.0,50,,900,375.88446,chirps-v2.0.1990.10.tif
395238,25020260,RINCONHONDO [25020260],9.397027778,-73.48802778,100,Pluviométrica,INSTITUTO DE HIDROLOGIA METEOROLOGIA Y ESTUDIOS AMBIENTALES,Area Operativa 05 - Magdalena-Cesar-Guajira,Cesar,Chiriguaná,1963-03-15,,PRECIPITACION,PTPM_TT_M,Precipitación total mensual,Mensual,1990-10-01,546.0,50,,900,407.4481,chirps-v2.0.1990.10.tif
395947,25020270,SALOA [25020270],9.193166667,-73.73130556,90,Pluviométrica,INSTITUTO DE HIDROLOGIA METEOROLOGIA Y ESTUDIOS AMBIENTALES,Area Operativa 05 - Magdalena-Cesar-Guajira,Cesar,Chimichagua,1963-04-15,,PRECIPITACION,PTPM_TT_M,Precipitación total mensual,Mensual,1990-10-01,547.0,50,,900,405.92725,chirps-v2.0.1990.10.tif
478567,28025090,CENTENARIO HACIENDA [28025090],9.85025,-73.26547222,100,Climática Ordinaria,INSTITUTO DE HIDROLOGIA METEOROLOGIA Y ESTUDIOS AMBIENTALES,Area Operativa 05 - Magdalena-Cesar-Guajira,Cesar,Agustín Codazzi,1976-12-15,,PRECIPITACION,PTPM_TT_M,Precipitación total mensual,Mensual,1990-10-01,292.6,50,,900,321.59216,chirps-v2.0.1990.10.tif
479270,25020230,JAGUA LA [25020230],9.562166667,-73.33947222,170,Pluviométrica,INSTITUTO DE HIDROLOGIA METEOROLOGIA Y ESTUDIOS AMBIENTALES,Area Operativa 05 - Magdalena-Cesar-Guajira,Cesar,La Jagua De Ibirico,1963-08-15,,PRECIPITACION,PTPM_TT_M,Precipitación total mensual,Mensual,1990-10-01,514.0,50,,900,371.65405,chirps-v2.0.1990.10.tif
479968,28020230,LLANOS LOS [28020230],9.733333333,-73.3,100,Pluviométrica,INSTITUTO DE HIDROLOGIA METEOROLOGIA Y ESTUDIOS AMBIENTALES,Area Operativa 05 - Magdalena-Cesar-Guajira,Cesar,Becerrill,1962-09-15,2010-10-15 00:00:00,PRECIPITACION,PTPM_TT_M,Precipitación total mensual,Mensual,1990-10-01,228.1,50,,900,318.75955,chirps-v2.0.1990.10.tif
480425,25020280,LOMA LA [25020280],9.606527778,-73.61197222,30,Pluviométrica,INSTITUTO DE HIDROLOGIA METEOROLOGIA Y ESTUDIOS AMBIENTALES,Area Operativa 05 - Magdalena-Cesar-Guajira,Cesar,El Paso,1963-10-15,,PRECIPITACION,PTPM_TT_M,Precipitación total mensual,Mensual,1990-10-01,410.5,50,,900,363.13025,chirps-v2.0.1990.10.tif
480976,28040310,MOLINO EL [28040310],9.776055556,-73.74341667,110,Pluviométrica,INSTITUTO DE HIDROLOGIA METEOROLOGIA Y ESTUDIOS AMBIENTALES,Area Operativa 05 - Magdalena-Cesar-Guajira,Cesar,El Paso,1972-08-15,2016-06-01 00:00:00,PRECIPITACION,PTPM_TT_M,Precipitación total mensual,Mensual,1990-10-01,521.0,50,,900,292.24863,chirps-v2.0.1990.10.tif
481419,28040350,PASO EL   [28040350],9.656972222,-73.74369444,30,Pluviométrica,INSTITUTO DE HIDROLOGIA METEOROLOGIA Y ESTUDIOS AMBIENTALES,Area Operativa 05 - Magdalena-Cesar-Guajira,Cesar,El Paso,1972-08-15,,PRECIPITACION,PTPM_TT_M,Precipitación total mensual,Mensual,1990-10-01,263.8,50,,900,269.44943,chirps-v2.0.1990.10.tif
482039,28020080,PLAYAS LAS HACIENDA [28020080],9.848083333,-73.46219444,60,Pluviométrica,INSTITUTO DE HIDROLOGIA METEOROLOGIA Y ESTUDIOS AMBIENTALES,Area Operativa 05 - Magdalena-Cesar-Guajira,Cesar,Agustín Codazzi,1959-08-15,,PRECIPITACION,PTPM_TT_M,Precipitación total mensual,Mensual,1990-10-01,174.0,50,,900,273.22037,chirps-v2.0.1990.10.tif
482582,28020420,SAN GABRIEL [28020420],9.844611111,-73.54769444,70,Pluviométrica,INSTITUTO DE HIDROLOGIA METEOROLOGIA Y ESTUDIOS AMBIENTALES,Area Operativa 05 - Magdalena-Cesar-Guajira,Cesar,San Diego,1972-09-15,,PRECIPITACION,PTPM_TT_M,Precipitación total mensual,Mensual,1990-10-01,180.0,50,,900,265.74042,chirps-v2.0.1990.10.tif
483081,28025080,SOCOMBA [28025080],9.686666667,-73.24055556,170,Climática Principal,INSTITUTO DE HIDROLOGIA METEOROLOGIA Y ESTUDIOS AMBIENTALES,Area Operativa 05 - Magdalena-Cesar-Guajira,Cesar,Becerrill,1976-12-15,2019-02-07 11:41:00,PRECIPITACION,PTPM_TT_M,Precipitación total mensual,Mensual,1990-10-01,238.8,50,,900,350.22424,chirps-v2.0.1990.10.tif
483381,25021650,YUCAL EL [25021650],9.557388889,-73.87619444,40,Pluviométrica,INSTITUTO DE HIDROLOGIA METEOROLOGIA Y ESTUDIOS AMBIENTALES,Area Operativa 05 - Magdalena-Cesar-Guajira,Cesar,Astrea,1984-11-15,,PRECIPITACION,PTPM_TT_M,Precipitación total mensual,Mensual,1990-10-01,262.5,50,,900,320.95636,chirps-v2.0.1990.10.tif
483883,28040030,BOSCONIA [28040030],9.97575,-73.88175,130,Pluviométrica,INSTITUTO DE HIDROLOGIA METEOROLOGIA Y ESTUDIOS AMBIENTALES,Area Operativa 05 - Magdalena-Cesar-Guajira,Cesar,Bosconia,1979-11-15,,PRECIPITACION,PTPM_TT_M,Precipitación total mensual,Mensual,1990-10-01,219.0,50,,900,204.03905,chirps-v2.0.1990.10.tif
484383,28020460,CODAZZI DC [28020460],10.04463889,-73.24338889,90,Pluviométrica,INSTITUTO DE HIDROLOGIA METEOROLOGIA Y ESTUDIOS AMBIENTALES,Area Operativa 05 - Magdalena-Cesar-Guajira,Cesar,Agustín Codazzi,1979-11-15,,PRECIPITACION,PTPM_TT_M,Precipitación total mensual,Mensual,1990-10-01,263.0,50,,900,295.94464,chirps-v2.0.1990.10.tif
484877,28020150,ESPERANZA LA HACIENDA [28020150],10.02997222,-73.66883333,60,Pluviométrica,INSTITUTO DE HIDROLOGIA METEOROLOGIA Y ESTUDIOS AMBIENTALES,Area Operativa 05 - Magdalena-Cesar-Guajira,Cesar,Valledupar,1961-05-15,,PRECIPITACION,PTPM_TT_M,Precipitación total mensual,Mensual,1990-10-01,151.0,50,,900,181.51057,chirps-v2.0.1990.10.tif
485473,28035040,GUAYMARAL [28035040],9.904916667,-73.64752778,50,Climática Ordinaria,INSTITUTO DE HIDROLOGIA METEOROLOGIA Y ESTUDIOS AMBIENTALES,Area Operativa 05 - Magdalena-Cesar-Guajira,Cesar,Valledupar,1972-08-15,,PRECIPITACION,PTPM_TT_M,Precipitación total mensual,Mensual,1990-10-01,200.0,50,,900,223.42241,chirps-v2.0.1990.10.tif
486106,28040270,MANATURE HACIENDA [28040270],10.03511111,-73.78852778,150,Pluviométrica,INSTITUTO DE HIDROLOGIA METEOROLOGIA Y ESTUDIOS AMBIENTALES,Area Operativa 05 - Magdalena-Cesar-Guajira,Cesar,Bosconia,1968-09-15,,PRECIPITACION,PTPM_TT_M,Precipitación total mensual,Mensual,1990-10-01,241.0,50,,900,184.70743,chirps-v2.0.1990.10.tif
486672,28025070,MOTILONIA CODAZZI [28025070],10.00180556,-73.24938889,180,Agrometeorológica,INSTITUTO DE HIDROLOGIA METEOROLOGIA Y ESTUDIOS AMBIENTALES,Area Operativa 05 - Magdalena-Cesar-Guajira,Cesar,Agustín Codazzi,1956-01-15,,PRECIPITACION,PTPM_TT_M,Precipitación total mensual,Mensual,1990-10-01,316.1,4,,900,295.94464,chirps-v2.0.1990.10.tif
487380,28040070,PALMARIGUANI [28040070],9.930083333,-73.95488889,80,Pluviométrica,INSTITUTO DE HIDROLOGIA METEOROLOGIA Y ESTUDIOS AMBIENTALES,Area Operativa 05 - Magdalena-Cesar-Guajira,Cesar,Bosconia,1963-01-15,,PRECIPITACION,PTPM_TT_M,Precipitación total mensual,Mensual,1990-10-01,404.0,50,,900,232.0517,chirps-v2.0.1990.10.tif
487822,28040400,PALMASOLA [28040400],9.977416667,-73.88930556,50,Pluviométrica,INSTITUTO DE HIDROLOGIA METEOROLOGIA Y ESTUDIOS AMBIENTALES,Area Operativa 05 - Magdalena-Cesar-Guajira,Cesar,Bosconia,1984-06-15,2019-02-07 11:42:00,PRECIPITACION,PTPM_TT_M,Precipitación total mensual,Mensual,1990-10-01,234.0,50,,900,204.03905,chirps-v2.0.1990.10.tif
488330,28020600,RETORNO EL [28020600],9.854722222,-73.35716667,150,Pluviométrica,INSTITUTO DE HIDROLOGIA METEOROLOGIA Y ESTUDIOS AMBIENTALES,Area Operativa 05 - Magdalena-Cesar-Guajira,Cesar,Agustín Codazzi,1979-02-15,,PRECIPITACION,PTPM_TT_M,Precipitación total mensual,Mensual,1990-10-01,344.8,50,,900,268.24164,chirps-v2.0.1990.10.tif
489059,28020440,SANTA TERESA HACIENDA [28020440],9.917027778,-73.28613889,80,Pluviométrica,INSTITUTO DE HIDROLOGIA METEOROLOGIA Y ESTUDIOS AMBIENTALES,Area Operativa 05 - Magdalena-Cesar-Guajira,Cesar,Agustín Codazzi,1959-04-15,,PRECIPITACION,PTPM_TT_M,Precipitación total mensual,Mensual,1990-10-01,178.7,50,,900,299.40274,chirps-v2.0.1990.10.tif
489686,28020310,BOGOTANA LA [28020310],10.1,-73.15,200,Pluviométrica,INSTITUTO DE HIDROLOGIA METEOROLOGIA Y ESTUDIOS AMBIENTALES,Area Operativa 05 - Magdalena-Cesar-Guajira,Cesar,Agustín Codazzi,1968-09-15,2004-08-15 00:00:00,PRECIPITACION,PTPM_TT_M,Precipitación total mensual,Mensual,1990-10-01,459.0,50,,900,300.13904,chirps-v2.0.1990.10.tif
490075,28030190,CARACOLI [28030190],10.08869444,-73.73172222,220,Pluviométrica,INSTITUTO DE HIDROLOGIA METEOROLOGIA Y ESTUDIOS AMBIENTALES,Area Operativa 05 - Magdalena-Cesar-Guajira,Cesar,Valledupar,1972-07-15,,PRECIPITACION,PTPM_TT_M,Precipitación total mensual,Mensual,1990-10-01,41.4,50,,900,208.01614,chirps-v2.0.1990.10.tif
490789,28040200,CHIMILAIMA [28040200],10.06666667,-73.76666667,120,Pluviométrica,INSTITUTO DE HIDROLOGIA METEOROLOGIA Y ESTUDIOS AMBIENTALES,Area Operativa 05 - Magdalena-Cesar-Guajira,Cesar,Bosconia,1962-08-15,1996-12-15 00:00:00,PRECIPITACION,PTPM_TT_M,Precipitación total mensual,Mensual,1990-10-01,299.0,50,,900,193.79533,chirps-v2.0.1990.10.tif
490975,28020590,LETICIA [28020590],10.15238889,-73.22172222,140,Pluviométrica,INSTITUTO DE HIDROLOGIA METEOROLOGIA Y ESTUDIOS AMBIENTALES,Area Operativa 05 - Magdalena-Cesar-Guajira,Cesar,San Diego,1979-01-15,,PRECIPITACION,PTPM_TT_M,Precipitación total mensual,Mensual,1990-10-01,203.0,50,,900,278.85785,chirps-v2.0.1990.10.tif
491461,28010370,PARIS DE FRANCIA [28010370],10.30708333,-73.32544444,180,Pluviométrica,INSTITUTO DE HIDROLOGIA METEOROLOGIA Y ESTUDIOS AMBIENTALES,Area Operativa 05 - Magdalena-Cesar-Guajira,Cesar,Valledupar,1971-11-15,,PRECIPITACION,PTPM_TT_M,Precipitación total mensual,Mensual,1990-10-01,197.0,50,,900,283.48828,chirps-v2.0.1990.10.tif
492166,28040060,PAVAS LAS [28040060],10.06666667,-73.88333333,150,Pluviométrica,INSTITUTO DE HIDROLOGIA METEOROLOGIA Y ESTUDIOS AMBIENTALES,Area Operativa 05 - Magdalena-Cesar-Guajira,Cesar,Bosconia,1963-01-15,1992-07-15 00:00:00,PRECIPITACION,PTPM_TT_M,Precipitación total mensual,Mensual,1990-10-01,86.0,50,,900,198.72894,chirps-v2.0.1990.10.tif
492497,28025020,RINCON EL [28025020],10.27138889,-73.13138889,350,Climática Ordinaria,INSTITUTO DE HIDROLOGIA METEOROLOGIA Y ESTUDIOS AMBIENTALES,Area Operativa 05 - Magdalena-Cesar-Guajira,Cesar,San Diego,1964-02-15,,PRECIPITACION,PTPM_TT_M,Precipitación total mensual,Mensual,1990-10-01,213.3,4,,900,365.38226,chirps-v2.0.1990.10.tif
493646,28010070,VILLA MARLENE [28010070],10.1855,-73.46711111,120,Pluviométrica,INSTITUTO DE HIDROLOGIA METEOROLOGIA Y ESTUDIOS AMBIENTALES,Area Operativa 05 - Magdalena-Cesar-Guajira,Cesar,Valledupar,1987-01-15,,PRECIPITACION,PTPM_TT_M,Precipitación total mensual,Mensual,1990-10-01,291.3,50,,900,222.01073,chirps-v2.0.1990.10.tif
494291,28035010,VILLA ROSA [28035010],10.19066667,-73.54738889,70,Climática Ordinaria,INSTITUTO DE HIDROLOGIA METEOROLOGIA Y ESTUDIOS AMBIENTALES,Area Operativa 05 - Magdalena-Cesar-Guajira,Cesar,Valledupar,1968-03-15,,PRECIPITACION,PTPM_TT_M,Precipitación total mensual,Mensual,1990-10-01,402.9,4,,900,233.85892,chirps-v2.0.1990.10.tif
495004,28010360,ATANQUEZ [28010360],10.69733333,-73.35305556,800,Pluviométrica,INSTITUTO DE HIDROLOGIA METEOROLOGIA Y ESTUDIOS AMBIENTALES,Area Operativa 05 - Magdalena-Cesar-Guajira,Cesar,Valledupar,1959-04-15,,PRECIPITACION,PTPM_TT_M,Precipitación total mensual,Mensual,1990-10-01,127.6,50,,900,335.09793,chirps-v2.0.1990.10.tif
495594,28035020,CALLAO EL [28035020],10.36305556,-73.31944444,110,Climática Ordinaria,INSTITUTO DE HIDROLOGIA METEOROLOGIA Y ESTUDIOS AMBIENTALES,Area Operativa 05 - Magdalena-Cesar-Guajira,Cesar,Valledupar,1968-03-15,,PRECIPITACION,PTPM_TT_M,Precipitación total mensual,Mensual,1990-10-01,320.2,50,,900,285.6767,chirps-v2.0.1990.10.tif
496345,28010020,DESCANSO EL [28010020],10.48011111,-73.23719444,160,Pluviométrica,INSTITUTO DE HIDROLOGIA METEOROLOGIA Y ESTUDIOS AMBIENTALES,Area Operativa 05 - Magdalena-Cesar-Guajira,Cesar,Valledupar,1986-04-15,2019-02-07 11:41:00,PRECIPITACION,PTPM_TT_M,Precipitación total mensual,Mensual,1990-10-01,287.0,50,,900,270.3386,chirps-v2.0.1990.10.tif
496884,28010040,MANAURE [28010040],10.39138889,-73.02527778,740,Pluviométrica,INSTITUTO DE HIDROLOGIA METEOROLOGIA Y ESTUDIOS AMBIENTALES,Area Operativa 05 - Magdalena-Cesar-Guajira,Cesar,Manaure Balcón Del Cesar,1975-09-15,,PRECIPITACION,PTPM_TT_M,Precipitación total mensual,Mensual,1990-10-01,557.9,50,,900,394.99768,chirps-v2.0.1990.10.tif
497587,28040010,PUEBLO BELLO [28040010],10.41463889,-73.58502778,10,Pluviométrica,INSTITUTO DE HIDROLOGIA METEOROLOGIA Y ESTUDIOS AMBIENTALES,Area Operativa 05 - Magdalena-Cesar-Guajira,Cesar,Pueblo Bello,1963-01-15,,PRECIPITACION,PTPM_TT_M,Precipitación total mensual,Mensual,1990-10-01,371.0,50,,900,393.2848,chirps-v2.0.1990.10.tif
498045,28030220,SAN ANGEL [28030220],10.34705556,-73.44413889,244,Pluviométrica,INSTITUTO DE HIDROLOGIA METEOROLOGIA Y ESTUDIOS AMBIENTALES,Area Operativa 05 - Magdalena-Cesar-Guajira,Cesar,Valledupar,1983-06-15,,PRECIPITACION,PTPM_TT_M,Precipitación total mensual,Mensual,1990-10-01,75.0,50,,900,306.875,chirps-v2.0.1990.10.tif
498514,28025040,SAN JOSE D ORIENTE [28025040],10.35,-73.05,850,Climática Ordinaria,INSTITUTO DE HIDROLOGIA METEOROLOGIA Y ESTUDIOS AMBIENTALES,Area Operativa 05 - Magdalena-Cesar-Guajira,Cesar,La Paz,1975-08-15,1998-05-15 00:00:00,PRECIPITACION,PTPM_TT_M,Precipitación total mensual,Mensual,1990-10-01,303.8,4,,900,444.08978,chirps-v2.0.1990.10.tif
498802,29060090,SAN SEBASTIAN DE [29060090],10.56330556,-73.60380556,20,Pluviométrica,INSTITUTO DE HIDROLOGIA METEOROLOGIA Y ESTUDIOS AMBIENTALES,Area Operativa 05 - Magdalena-Cesar-Guajira,Cesar,Pueblo Bello,1968-05-15,,PRECIPITACION,PTPM_TT_M,Precipitación total mensual,Mensual,1990-10-01,240.0,50,,900,413.78546,chirps-v2.0.1990.10.tif
499434,28010140,VILLA CARMELITA [28010140],10.53333333,-73.3,450,Pluviométrica,INSTITUTO DE HIDROLOGIA METEOROLOGIA Y ESTUDIOS AMBIENTALES,Area Operativa 05 - Magdalena-Cesar-Guajira,Cesar,Valledupar,1968-09-15,2004-08-15 00:00:00,PRECIPITACION,PTPM_TT_M,Precipitación total mensual,Mensual,1990-10-01,456.0,50,,900,304.1469,chirps-v2.0.1990.10.tif
499896,28010090,PATILLAL [28010090],10.70386111,-73.21161111,450,Pluviométrica,INSTITUTO DE HIDROLOGIA METEOROLOGIA Y ESTUDIOS AMBIENTALES,Area Operativa 05 - Magdalena-Cesar-Guajira,Cesar,Valledupar,1962-12-15,,PRECIPITACION,PTPM_TT_M,Precipitación total mensual,Mensual,1990-10-01,228.0,50,,900,314.34058,chirps-v2.0.1990.10.tif
500669,28045010,PUEBLO BELLO  [28045010],10.37,-73.63,1000,Climática Ordinaria,FEDERACION NACIONAL DE CAFETEROS,Area Operativa 05 - Magdalena-Cesar-Guajira,Cesar,Pueblo Bello,1954-02-15,2020-10-21 17:13:00,PRECIPITACION,PTPM_TT_M,Precipitación total mensual,Mensual,1990-10-01,268.8,50,,900,363.29276,chirps-v2.0.1990.10.tif
501356,15060080,CANAVERALES [15060080],10.75777778,-72.84522222,230,Pluviométrica,INSTITUTO DE HIDROLOGIA METEOROLOGIA Y ESTUDIOS AMBIENTALES,Area Operativa 05 - Magdalena-Cesar-Guajira,La Guajira,San Juan Del Cesar,1963-08-15,,PRECIPITACION,PTPM_TT_M,Precipitación total mensual,Mensual,1990-10-01,476.0,50,,900,303.17114,chirps-v2.0.1990.10.tif
501909,15060150,CONEJO EL [15060150],10.77794444,-72.79819444,350,Pluviométrica,INSTITUTO DE HIDROLOGIA METEOROLOGIA Y ESTUDIOS AMBIENTALES,Area Operativa 05 - Magdalena-Cesar-Guajira,La Guajira,Fonseca,1975-10-15,,PRECIPITACION,PTPM_TT_M,Precipitación total mensual,Mensual,1990-10-01,355.8,50,,900,304.647,chirps-v2.0.1990.10.tif
502518,28010200,HATICO D LOS INDIO [28010200],10.86022222,-73.11416667,594,Pluviométrica,INSTITUTO DE HIDROLOGIA METEOROLOGIA Y ESTUDIOS AMBIENTALES,Area Operativa 05 - Magdalena-Cesar-Guajira,La Guajira,San Juan Del Cesar,1970-01-15,,PRECIPITACION,PTPM_TT_M,Precipitación total mensual,Mensual,1990-10-01,223.3,50,,900,302.40207,chirps-v2.0.1990.10.tif
503104,15060070,JUGUETE EL [15060070],10.786,-72.76836111,390,Pluviométrica,INSTITUTO DE HIDROLOGIA METEOROLOGIA Y ESTUDIOS AMBIENTALES,Area Operativa 05 - Magdalena-Cesar-Guajira,La Guajira,Fonseca,1971-05-15,2014-08-28 00:00:00,PRECIPITACION,PTPM_TT_M,Precipitación total mensual,Mensual,1990-10-01,287.1,50,,900,304.647,chirps-v2.0.1990.10.tif
503628,15065040,LA PAULINA - AUT [15065040],10.89813889,-72.82847222,170,Climática Principal,INSTITUTO DE HIDROLOGIA METEOROLOGIA Y ESTUDIOS AMBIENTALES,Area Operativa 05 - Magdalena-Cesar-Guajira,La Guajira,Fonseca,1966-09-15,,PRECIPITACION,PTPM_TT_M,Precipitación total mensual,Mensual,1990-10-01,184.6,50,,900,232.79013,chirps-v2.0.1990.10.tif
504202,15060050,SABANAS DE MANUELA [15060050],10.953,-73.04797222,420,Pluviométrica,INSTITUTO DE HIDROLOGIA METEOROLOGIA Y ESTUDIOS AMBIENTALES,Area Operativa 05 - Magdalena-Cesar-Guajira,La Guajira,Distracción,1963-08-15,,PRECIPITACION,PTPM_TT_M,Precipitación total mensual,Mensual,1990-10-01,195.6,50,,900,295.80023,chirps-v2.0.1990.10.tif
504739,28015070,URUMITA [28015070],10.56638889,-73.01638889,255,Climática Ordinaria,INSTITUTO DE HIDROLOGIA METEOROLOGIA Y ESTUDIOS AMBIENTALES,Area Operativa 05 - Magdalena-Cesar-Guajira,La Guajira,Urumita,1975-08-15,,PRECIPITACION,PTPM_TT_M,Precipitación total mensual,Mensual,1990-10-01,387.4,50,,900,343.33545,chirps-v2.0.1990.10.tif
505325,28010340,VILLANUEVA [28010340],10.61583333,-72.98194444,340,Pluviométrica,INSTITUTO DE HIDROLOGIA METEOROLOGIA Y ESTUDIOS AMBIENTALES,Area Operativa 05 - Magdalena-Cesar-Guajira,La Guajira,Villanueva,1970-08-15,,PRECIPITACION,PTPM_TT_M,Precipitación total mensual,Mensual,1990-10-01,270.3,50,,900,327.3825,chirps-v2.0.1990.10.tif
505994,25025090,AEROPUERTO LAS FLORES [25025090],9.046333333,-73.97083333,34,Climática Principal,INSTITUTO DE HIDROLOGIA METEOROLOGIA Y ESTUDIOS AMBIENTALES,Area Operativa 05 - Magdalena-Cesar-Guajira,Magdalena,El Banco,1952-02-15,,PRECIPITACION,PTPM_TT_M,Precipitación total mensual,Mensual,1990-10-01,210.2,50,,900,380.96274,chirps-v2.0.1990.10.tif
506558,28040320,BRILLANTE EL [28040320],9.70275,-73.95913889,135,Pluviométrica,INSTITUTO DE HIDROLOGIA METEOROLOGIA Y ESTUDIOS AMBIENTALES,Area Operativa 05 - Magdalena-Cesar-Guajira,Magdalena,Santa Ana,1972-07-15,,PRECIPITACION,PTPM_TT_M,Precipitación total mensual,Mensual,1990-10-01,218.0,50,,900,299.26392,chirps-v2.0.1990.10.tif
507026,25021620,IRAN [25021620],9.683777778,-74.32216667,80,Pluviométrica,INSTITUTO DE HIDROLOGIA METEOROLOGIA Y ESTUDIOS AMBIENTALES,Area Operativa 05 - Magdalena-Cesar-Guajira,Magdalena,Nueva Granada,1982-06-15,,PRECIPITACION,PTPM_TT_M,Precipitación total mensual,Mensual,1990-10-01,153.0,50,,900,170.76428,chirps-v2.0.1990.10.tif
507590,25021040,MENCHIQUEJO [25021040],9.188055556,-74.04422222,25,Pluviométrica,INSTITUTO DE HIDROLOGIA METEOROLOGIA Y ESTUDIOS AMBIENTALES,Area Operativa 05 - Magdalena-Cesar-Guajira,Magdalena,El Banco,1974-09-15,,PRECIPITACION,PTPM_TT_M,Precipitación total mensual,Mensual,1990-10-01,295.0,50,,900,366.7383,chirps-v2.0.1990.10.tif
508136,25021200,NEGRITOS LOS [25021200],9.026666667,-74.07944444,26,Pluviométrica,INSTITUTO DE HIDROLOGIA METEOROLOGIA Y ESTUDIOS AMBIENTALES,Area Operativa 02 - Atlántico-Bolivar-Sucre,Magdalena,El Banco,1976-07-15,,PRECIPITACION,PTPM_TT_M,Precipitación total mensual,Mensual,1990-10-01,319.0,50,,900,379.153,chirps-v2.0.1990.10.tif
508646,25021500,PUEBLITO EL [25021500],9.581166667,-74.35225,35,Pluviométrica,INSTITUTO DE HIDROLOGIA METEOROLOGIA Y ESTUDIOS AMBIENTALES,Area Operativa 05 - Magdalena-Cesar-Guajira,Magdalena,Santa Ana,1976-10-15,,PRECIPITACION,PTPM_TT_M,Precipitación total mensual,Mensual,1990-10-01,132.0,50,,900,144.31442,chirps-v2.0.1990.10.tif
509135,25021380,SAN ROQUE ALERTAS [25021380],9.07,-74.15,24,Pluviométrica,INSTITUTO DE HIDROLOGIA METEOROLOGIA Y ESTUDIOS AMBIENTALES,Area Operativa 02 - Atlántico-Bolivar-Sucre,Magdalena,El Banco,1980-05-15,,PRECIPITACION,PTPM_TT_M,Precipitación total mensual,Mensual,1990-10-01,210.0,50,,900,356.1075,chirps-v2.0.1990.10.tif
509683,25020900,SAN SEBASTIAN [25020900],9.233888889,-74.35583333,65,Pluviométrica,INSTITUTO DE HIDROLOGIA METEOROLOGIA Y ESTUDIOS AMBIENTALES,Area Operativa 02 - Atlántico-Bolivar-Sucre,Magdalena,San Sebastián De Buenavista,1974-01-15,,PRECIPITACION,PTPM_TT_M,Precipitación total mensual,Mensual,1990-10-01,334.0,50,,900,256.62784,chirps-v2.0.1990.10.tif
510199,25025300,SEIS EL [25025300],9.683666667,-74.32227778,50,Climática Ordinaria,INSTITUTO DE HIDROLOGIA METEOROLOGIA Y ESTUDIOS AMBIENTALES,Area Operativa 05 - Magdalena-Cesar-Guajira,Magdalena,San Sebastián De Buenavista,1984-11-15,,PRECIPITACION,PTPM_TT_M,Precipitación total mensual,Mensual,1990-10-01,228.8,50,,900,170.76428,chirps-v2.0.1990.10.tif
510757,28040300,VILLA CONCEPCION [28040300],9.706305556,-73.85944444,120,Pluviométrica,INSTITUTO DE HIDROLOGIA METEOROLOGIA Y ESTUDIOS AMBIENTALES,Area Operativa 05 - Magdalena-Cesar-Guajira,Magdalena,Ariguaní (El Dificil),1972-07-15,,PRECIPITACION,PTPM_TT_M,Precipitación total mensual,Mensual,1990-10-01,288.0,50,,900,304.9601,chirps-v2.0.1990.10.tif
511263,25021540,AGUADAS LAS ALERTA [25021540],8.949997222,-74.049997222,30,Pluviométrica,INSTITUTO DE HIDROLOGIA METEOROLOGIA Y ESTUDIOS AMBIENTALES,Area Operativa 02 - Atlántico-Bolivar-Sucre,Bolivar,San Martín De Loba,1978-11-15,,PRECIPITACION,PTPM_TT_M,Precipitación total mensual,Mensual,1990-10-01,335.0,50,,900,422.29126,chirps-v2.0.1990.10.tif
511816,25020880,BARRANCO DE LOBA [25020880],8.946666667,-74.11055556,25,Pluviométrica,INSTITUTO DE HIDROLOGIA METEOROLOGIA Y ESTUDIOS AMBIENTALES,Area Operativa 02 - Atlántico-Bolivar-Sucre,Bolivar,Barranco De Loba,1974-09-15,,PRECIPITACION,PTPM_TT_M,Precipitación total mensual,Mensual,1990-10-01,432.0,50,,900,440.19885,chirps-v2.0.1990.10.tif
512358,25020890,CHILLOA [25020890],9.119388889,-74.22194444,20,Pluviométrica,INSTITUTO DE HIDROLOGIA METEOROLOGIA Y ESTUDIOS AMBIENTALES,Area Operativa 02 - Atlántico-Bolivar-Sucre,Bolivar,Margarita,1974-09-15,,PRECIPITACION,PTPM_TT_M,Precipitación total mensual,Mensual,1990-10-01,254.0,50,,900,298.86932,chirps-v2.0.1990.10.tif
512878,25021320,SUDAN EL [25021320],8.643333333,-74.21222222,23,Pluviométrica,INSTITUTO DE HIDROLOGIA METEOROLOGIA Y ESTUDIOS AMBIENTALES,Area Operativa 02 - Atlántico-Bolivar-Sucre,Bolivar,Tiquisio (Puerto Rico),1976-10-15,,PRECIPITACION,PTPM_TT_M,Precipitación total mensual,Mensual,1990-10-01,663.0,50,,900,481.98505,chirps-v2.0.1990.10.tif
514021,25020870,PLAYITAS [25020870],8.822777778,-73.96583333,40,Pluviométrica,INSTITUTO DE HIDROLOGIA METEOROLOGIA Y ESTUDIOS AMBIENTALES,Area Operativa 02 - Atlántico-Bolivar-Sucre,Bolivar,San Martín De Loba,1974-09-15,,PRECIPITACION,PTPM_TT_M,Precipitación total mensual,Mensual,1990-10-01,669.0,50,,900,395.4499,chirps-v2.0.1990.10.tif
514581,25021090,SANTA ROSA [25021090],9.093333333,-74.31388889,40,Pluviométrica,INSTITUTO DE HIDROLOGIA METEOROLOGIA Y ESTUDIOS AMBIENTALES,Area Operativa 02 - Atlántico-Bolivar-Sucre,Bolivar,San Fernando,1974-10-15,,PRECIPITACION,PTPM_TT_M,Precipitación total mensual,Mensual,1990-10-01,376.0,50,,900,320.94763,chirps-v2.0.1990.10.tif
